Program,Site Name,City,State,Latitude,Longitude
Brownfield,323-190-74,Poway,CA,32.95632,-117.02736
Brownfield,3093 7th Street,Riverside,CA,33.98,-117.367
Brownfield,Exxon/Nella Oil Co.,West Sacramento,CA,38.58091,-121.52674
Brownfield,Couch,Denver,CO,39.76249,-104.91945
Brownfield,Commspec Building,Moline,IL,41.482937,-90.50497
Brownfield,Former Newman School,Newman,IL,39.80158,-87.98472
Brownfield,S&W Chemical,Hickory,NC,35.72959,-81.366361
Brownfield,Hunts Sohio,Elmore,OH,41.476069,-83.294283
Brownfield,801 Beach,Fort Worth,TX,32.75615,-97.28855
Federal Superfund,BRANDYWINE DRMO,BRANDYWINE,MD,38.69805,-76.845
Non-Federal Superfund,VALLEY PARK TCE,VALLEY PARK,MO,38.55278,-90.46666
Non-Federal Superfund,PEPE FIELD,BOONTON,NJ,40.91221,-74.41193
Non-Federal Superfund,SIKES DISPOSAL PITS,CROSBY,TX,29.88166,-95.08666
RCRA,Gatx Rail,Colton,CA,34.065338,-117.3507
RCRA,P&W-Main St,East Hartford,CT,41.750218,-72.639371
RCRA,Clean Harbors,Chicago,IL,41.695344,-87.574226
RCRA,"Detd, Llc",Plymouth,MI,42.363643,-83.456436
RCRA,Nashua Label Corporation,Omaha,NE,41.223156,-96.082473
RCRA,Fmc Corporation,Middleport,NY,43.207167,-78.468875
RCRA,Oakes Foundry Inc,Warren,OH,41.258333,-80.8
RCRA,Kaiser Aluminum,Erie,PA,42.131457,-80.059533
RCRA,Mpm Inc,Frederic,WI,45.653577,-92.466936
Abandoned Mine Land,USDOI BLM RED TOP MINE,ALEKNAGIK,AK,59.283,-157.4
Abandoned Mine Land,MOUNTAIN TOP MINE,ANIAK,AK,61.383,-157.95
Abandoned Mine Land,USDOI NPS DENALI NP:BANJO MINE,DENALI NATIONAL PARK,AK,63.553,-149.137
Abandoned Mine Land,USDOI NPS DENALI NP:STAMPEDE CREEK MINE,DENALI NATIONAL PARK,AK,63.718,-149.6
Abandoned Mine Land,TREADWELL MINES,DOUGLAS,AK,58.264,-133.624
Abandoned Mine Land,USDOI NPS WRANGELL ST ELIAS NP&P:NABESNA MINE,GLENNALLEN,AK,62.35,-143
Abandoned Mine Land,USDA FS TONGASS NF: BOKAN MOUNTAIN MINE AKA ROSS ADAMS MINE,HYDABURG,AK,54.909,-132.14
Abandoned Mine Land,THANE MINE DUMP,JUNEAU,AK,58.203,-133.592
Abandoned Mine Land,CINNABAR CREEK MINE AKA ALASKA ST OF CINNABAR CREEK,KASHEGELOK,AK,60.791,-158.857
Abandoned Mine Land,USDA FS TONGASS NF: MAHONEY MINE,KETCHIKAN,AK,55.254,-131.303
Abandoned Mine Land,USDA FS TONGASS NF: SEALEVEL MINE,KETCHIKAN,AK,55.222,-131.116
Abandoned Mine Land,USDOI BLM RED DEVIL MINE WASTE PONDS,RED DEVIL,AK,61.764,-156.689
Abandoned Mine Land,USDOI NPS KENAI FJORDS NP&P:BEAUTY BAY MINE,SEWARD,AK,59.55,-150.667
Abandoned Mine Land,KLAG BAY SITE,SITKA,AK,57.662,-135.918
Abandoned Mine Land,NABESNA MINE,SLANA,AK,62.372,-142.995
Abandoned Mine Land,USDA FS TONGASS NF:SALT CHUCK MINE,THORNE BAY,AK,55.627,-132.557
Abandoned Mine Land,USDA FS CHUGACH NF:GRANITE MINE NR PORT WELLS BAY,WHITTIER,AK,60.972,-147.79
Abandoned Mine Land,MAGOBAR MINE,MALVERN,AR,34.475,-91.183
Abandoned Mine Land,PHELPS DODGE CORP NEW CORNELIA BRANCH,AJO,AZ,32.38,-111.161
Abandoned Mine Land,A & B NO. 3 MINE,CAMERON,AZ,35.88,-110.568
Abandoned Mine Land,BOYD TISI NO. 2 MINE,CAMERON,AZ,35.886,-110.622
Abandoned Mine Land,CAMERON AGGREGATED URANIUM MINES,CAMERON,AZ,35.875,-110.587
Abandoned Mine Land,HUSKON NO. 26 MINE,CAMERON,AZ,35.759,-110.669
Abandoned Mine Land,YAZZIE NO. 1 MINE,CAMERON,AZ,35.724,-110.693
Abandoned Mine Land,ARITMECO - EMERALD ISLE MINE,CHLORIDE,AZ,35.415,-113.8
Abandoned Mine Land,PHELPS DODGE VERDE MINE,CLARKDALE,AZ,34.784,-111.946
Abandoned Mine Land,ABANDONED COPPER MINE,FREDONIA,AZ,36.628,-110.551
Abandoned Mine Land,ANAMAX MINING CO TWIN BUTTESMINE,GREEN VALLEY,AZ,31.908,-110.966
Abandoned Mine Land,ASARCO INC HAYDEN PLT,HAYDEN,AZ,33.001,-109.231
Abandoned Mine Land,HUMBOLDT SMELTER,HUMBOLDT,AZ,34.492,-112.229
Abandoned Mine Land,IRON KING MINE - HUMBOLDT SMELTER,HUMBOLDT,AZ,34.503,-111.763
Abandoned Mine Land,AMERICAN LEGION MINE,KINGMAN,AZ,35.192,-113.938
Abandoned Mine Land,GIBSON MINE,MIAMI,AZ,33.329,-109.059
Abandoned Mine Land,ORACLE RIDGE MINE,ORACLE,AZ,32.608,-109.237
Abandoned Mine Land,THREE R MINE,PATAGONIA,AZ,34.547,-111.528
Abandoned Mine Land,WORLD'S FAIR MINE,PATAGONIA,AZ,31.543,-109.247
Abandoned Mine Land,SHUMWAY MILLSITES,PAYSON,AZ,34.232,-110.663
Abandoned Mine Land,THORNE MILLSITE,PAYSON,AZ,33.438,-110.148
Abandoned Mine Land,"SOLOMONS MINES, INC. (WRG)",PHOENIX,AZ,33.499,-111.868
Abandoned Mine Land,CASH MINE,PRESCOTT,AZ,34.418,-112.417
Abandoned Mine Land,HASSAYAMPA/LYNX CREEK ABANDONED MINES,PRESCOTT,AZ,34.547,-111.528
Abandoned Mine Land,HOLIDAY GIRL MINE,PRESCOTT,AZ,34.428,-112.416
Abandoned Mine Land,MCCLEUR TAILINGS,PRESCOTT,AZ,34.424,-112.426
Abandoned Mine Land,SENATOR MINE,PRESCOTT,AZ,34.426,-112.433
Abandoned Mine Land,SHELDON MINE,PRESCOTT,AZ,34.547,-111.528
Abandoned Mine Land,SUNDANCE MINE,PRESCOTT,AZ,34.422,-112.429
Abandoned Mine Land,ZULA MINE,RYE,AZ,34.232,-110.663
Abandoned Mine Land,DUVAL CORP/ESPERANZA MINE,SAHUARITA,AZ,31.907,-109.017
Abandoned Mine Land,MAGMA COPPER CO,SUPERIOR,AZ,33.293,-110.894
Abandoned Mine Land,VULTURE MILL SITE,WICKENBURG,AZ,33.967,-111.27
Abandoned Mine Land,ABANDONED URANIUM MINES ON THE NAVAJO NATION,WINDOW ROCK,AZ,35.652,-109.067
Abandoned Mine Land,BLACKROCK MINE,BISHOP,CA,37.362,-117.605
Abandoned Mine Land,PENN MINE,CAMPO SECO,CA,38.23,-119.148
Abandoned Mine Land,ALTOONA MINE,CASTELLA,CA,41.137,-122.548
Abandoned Mine Land,A & W SMELTER,CHULA VISTA,CA,32.647,-116.948
Abandoned Mine Land,SULPHUR BANK MERCURY MINE,CLEARLAKE OAKS,CA,39.00555,-122.6703
Abandoned Mine Land,ATLAS ASBESTOS MINE,COALINGA,CA,36.32166,-120.5867
Abandoned Mine Land,COALINGA ASBESTOS MINE,COALINGA,CA,36.31,-120.5283
Abandoned Mine Land,SOLAMBO MINE,COULTERVILLE,CA,37.712,-119.805
Abandoned Mine Land,EL DORADO HILLS NATURALLY OCCURRING ASBESTOS,EL DORADO HILLS,CA,38.685,-121.075
Abandoned Mine Land,GIBRALTAR MINING CO.,GOLETA,CA,34.524,-118.343
Abandoned Mine Land,IDAHO MARYLAND MINE,GRASS VALLEY,CA,39.222,-121.038
Abandoned Mine Land,US FOREST SVC-DRINKWATER GULCH MINE,HAYFORK,CA,40.565,-122.729
Abandoned Mine Land,CELTOR CHEMICAL WORKS,HOOPA,CA,41.1027,-123.6911
Abandoned Mine Land,COPPER BLUFF MINE (BOLIVAR MINE)-HOOPA,HOOPA,CA,41.117,-122.333
Abandoned Mine Land,ARGONAUT MINE,JACKSON,CA,38.463,-122.982
Abandoned Mine Land,SHAHARALD MINE,KRAMER JUNCTION,CA,34.924,-117.465
Abandoned Mine Land,PIONEER PIT AND GARDNER'S POINT PLACER MINES,LA PORTE,CA,39.404,-120.556
Abandoned Mine Land,USDOJ BLM,MARIPOSA,CA,37.488,-118.037
Abandoned Mine Land,LEVIATHAN MINE,MARKLEEVILLE,CA,38.70388,-119.65611
Abandoned Mine Land,LAVA CAP MINE,NEVADA CITY,CA,39.22805,-120.96986
Abandoned Mine Land,NEW IDRIA MERCURY MINE,NEW IDRIA,CA,36.415,-119.326
Abandoned Mine Land,KLAU/BUENA VISTA MINE,PASO ROBLES,CA,35.6259,-120.8967
Abandoned Mine Land,GAMBONINI MERCURY MINE,PETALUMA,CA,38.101,-122.465
Abandoned Mine Land,BALAKLALA MINE,REDDING,CA,40.729,-121.506
Abandoned Mine Land,COPPER MOUNTAIN MINE,REDDING,CA,40.572,-121.598
Abandoned Mine Land,IRON MOUNTAIN MINE,REDDING,CA,40.67166,-122.5278
Abandoned Mine Land,SHASTA TRINITY NAT FOREST,REDDING,CA,40.572,-121.598
Abandoned Mine Land,BLUE LEDGE MINE,ROGUE RIVER NF,CA,41.965,-123.102
Abandoned Mine Land,ALMADEN QUICKSILVER PARK,SAN JOSE,CA,37.332,-120.127
Abandoned Mine Land,RINCONADA MINE,SANTA MARGARITA,CA,35.632,-119.31
Abandoned Mine Land,MAMMOTH MINE,SHASTA LAKE,CA,40.762,-121.548
Abandoned Mine Land,SISKON MINE,SOMES BAR,CA,41.581,-122.359
Abandoned Mine Land,CENTRAL EUREKA MINE,SUTTER CREEK,CA,38.392,-119.198
Abandoned Mine Land,ABBOTT/TURKEY RUN MINE,WILLIAMS,CA,39.019,-122.435
Abandoned Mine Land,EUGENIA MINE,ALLENSPARK,CO,40.284,-105.573
Abandoned Mine Land,SMUGGLER MOUNTAIN,ASPEN,CO,39.19166,-106.8107
Abandoned Mine Land,HENDRICKS MINING & MILLING,BOULDER,CO,40.028,-104.71
Abandoned Mine Land,SWEENEY MILL,BOULDER,CO,40.028,-104.71
Abandoned Mine Land,CLAIM JUMPER/SHOCK HILL,BRECKENRIDGE,CO,39.494,-106.051
Abandoned Mine Land,JESSIE MINE AND MILL,BRECKENRIDGE,CO,39.5,-105.917
Abandoned Mine Land,COLLEGE OF THE CANON % ERNEST BAUMAN,CANON CITY,CO,38.443,-105.237
Abandoned Mine Land,LINCOLN PARK,CANON CITY,CO,38.4,-105.2333
Abandoned Mine Land,US SMELTER,CANON CITY,CO,38.429,-105.239
Abandoned Mine Land,COLORADO PHILADELPHIA REDUCTION WORKS,COLORADO SPRINGS,CO,38.849,-103.126
Abandoned Mine Land,CEDAR RESOURCES,CONEJOS,CO,37.347,-105.466
Abandoned Mine Land,EAST WILLOW CREEK AND WILLOW CREEK,CREEDE,CO,38.404,-104.465
Abandoned Mine Land,NELSON TUNNEL,CREEDE,CO,37.871,-106.94
Abandoned Mine Land,WEST WILLOW CREEK,CREEDE,CO,37.875,-105.075
Abandoned Mine Land,ARGO SMELTER,DENVER,CO,39.784,-104.99
Abandoned Mine Land,"ASARCO, INC. (GLOBE PLANT)",DENVER,CO,39.79333,-104.98027
Abandoned Mine Land,DENVER RADIUM SITE,DENVER,CO,39.71666,-105
Abandoned Mine Land,OMAHA AND GRANT SMELTER,DENVER,CO,39.784,-104.961
Abandoned Mine Land,VASQUEZ BOULEVARD AND I-70,DENVER,CO,39.79166,-104.95833
Abandoned Mine Land,WESTERN MINERALS DENVER PLANT,DENVER,CO,39.714,-105.004
Abandoned Mine Land,LONDON MINE,FAIRPLAY,CO,39.273,-105.862
Abandoned Mine Land,BELDEN CRIBBINGS,GILMAN,CO,39.525,-106.4
Abandoned Mine Land,NORTH STAR MINE,GRAND LAKE,CO,40.428,-105.849
Abandoned Mine Land,STANDARD MINE,GUNNISON NATIONAL FORREST,CO,38.87916,-107.07389
Abandoned Mine Land,GEM PARK COMPLEX,HILLSIDE,CO,38.269,-105.546
Abandoned Mine Land,"CENTRAL CITY, CLEAR CREEK",IDAHO SPRINGS,CO,39.75,-105.5
Abandoned Mine Land,BUENO MILL & MINE SITE,JAMESTOWN,CO,40.116,-105.394
Abandoned Mine Land,EVENING STAR MINE,JAMESTOWN,CO,40.132,-105.404
Abandoned Mine Land,GOLDEN AGE MINE,JAMESTOWN,CO,40.123,-105.358
Abandoned Mine Land,HALL VALLEY MINES,JEFFERSON,CO,37.875,-106.042
Abandoned Mine Land,PENNSYLVANIA MINE,KEYSTONE,CO,39.6,-105.81
Abandoned Mine Land,PERU CREEK MINING DISTRICT,KEYSTONE,CO,39.597,-105.874
Abandoned Mine Land,HENSON CREEK MINES,LAKE CITY,CO,38.223,-106.686
Abandoned Mine Land,CALIFORNIA GULCH,LEADVILLE,CO,39.23611,-106.2692
Abandoned Mine Land,HALF MOON CREEK SITE,LEADVILLE,CO,39.141,-106.492
Abandoned Mine Land,MOUNT CHAMPION MILL SITE,LEADVILLE,CO,39.138,-106.504
Abandoned Mine Land,ST. KEVIN GULCH WATERSHED,LEADVILLE,CO,39.292,-106.375
Abandoned Mine Land,MOLYCORP INC,LOUVIERS,CO,39.49,-104.988
Abandoned Mine Land,EAGLE MINE,MINTURN/REDCLIFF,CO,39.53333,-106.3917
Abandoned Mine Land,CARBONERO MINE,OPHIR,CO,37.793,-106.191
Abandoned Mine Land,SILVER BELL MINE/MILL,OPHIR,CO,37.862,-106.135
Abandoned Mine Land,AMERICAN LEAD AND ZINC MILL,OURAY,CO,38.056,-107.683
Abandoned Mine Land,"CANYON CREEK WATERSHED, MINED AREAS",OURAY,CO,37.875,-106.042
Abandoned Mine Land,CORKSCREW AND GRAY COPPER GULCHES,OURAY,CO,37.921,-106.343
Abandoned Mine Land,UPPER UNCOMPAHGRE RIVER,OURAY,CO,37.971,-107.625
Abandoned Mine Land,POWERHORN DISTRICT VERMICULITE,POWDERHORN,CO,38.253,-107.053
Abandoned Mine Land,SANTA FE (BRIDGE) CULVERT,PUEBLO,CO,38.242,-103.423
Abandoned Mine Land,RICO - ARGENTINE,RICO,CO,37.692,-108.038
Abandoned Mine Land,SUMMITVILLE MINE,RIO GRANDE COUNTY,CO,37.43,-106.585
Abandoned Mine Land,SLIDE MINE/CORNING TUNNEL,ROWENA,CO,40.069,-105.402
Abandoned Mine Land,KOPPERS - SALIDA,SALIDA,CO,38.53,-106.001
Abandoned Mine Land,SMELTERTOWN SITE,SALIDA,CO,38.55194,-106.02694
Abandoned Mine Land,KENDRICK & GELDER SMELTING CO,SILVERTON,CO,37.82,-106.336
Abandoned Mine Land,UPPER ANIMAS MINING DISTRICT,SILVERTON,CO,37.844,-107.571
Abandoned Mine Land,ROYAL TIGER MINE AND MILL,UNINCORPORATED,CO,39.55,-104.083
Abandoned Mine Land,URAVAN URANIUM PROJECT (UNION CARBIDE CORP.),URAVAN,CO,38.36666,-108.7483
Abandoned Mine Land,GILLETTE GOLD EXTRACTION CO,VICTOR,CO,38.726,-104.878
Abandoned Mine Land,INDEPENDENCE MINE,VICTOR,CO,38.711,-104.864
Abandoned Mine Land,GREAT WEST GOLD AND SILVER,VULCAN,CO,38.382,-107.043
Abandoned Mine Land,CAPTAIN JACK MILL,WARD,CO,40.05583,-105.50361
Abandoned Mine Land,ILSE MINE,WESTCLIFFE,CO,38.168,-104.758
Abandoned Mine Land,FLORIDA SMELTING COMPANY-BERMAN BROS,JACKSONVILLE,FL,30.212,-81.384
Abandoned Mine Land,FLORIDA SMELTING COMPANY-BUFFALO AVE,JACKSONVILLE,FL,30.212,-81.384
Abandoned Mine Land,"CENTRAL PHOSPHATES, INC.",PLANT CITY,FL,28.018,-81.878
Abandoned Mine Land,STAUFFER CHEMICAL CO. (TARPON SPRINGS),TARPON SPRINGS,FL,28.16666,-82.77569
Abandoned Mine Land,IDAHO LAKEVIEW MINE,ATHOL,ID,47.545,-116.283
Abandoned Mine Land,GOLD CREEK-SHOSHONE MILL F,BAYVIEW,ID,47.933,-116.441
Abandoned Mine Land,MINNIE MOORE MINE,BELLEVUE,ID,43.469,-114.293
Abandoned Mine Land,GROUSE CREEK MINE,BONANZA,ID,44.431,-114.73
Abandoned Mine Land,RED LEDGE MINE,CAMBRIDGE,ID,45.23,-115.332
Abandoned Mine Land,CLAYTON SILVER MINE & ASSOC PROPERTIES,CLAYTON,ID,44.281,-113.59
Abandoned Mine Land,USDA FS SALMON NF:BLACKBIRD MINE,COBALT,ID,45.167,-113.733
Abandoned Mine Land,USDA FS CARIBOU NF:SOUTH MABEY CANYON CROSS VALLEY FILL SITE,CONDA,ID,42.741,-111.373
Abandoned Mine Land,USDA FS BOISE NF:MISSOURI MINE,IDAHO CITY,ID,44,-115
Abandoned Mine Land,USDA FS SAWTOOTH NF:BASSETT GULCH MILL,KETCHUM,ID,43.667,-114.458
Abandoned Mine Land,BLACKBIRD MINE,LEMHI COUNTY,ID,45.11638,-114.26444
Abandoned Mine Land,DEADWOOD MINE AKA PILGRIM MINE,LOWMAN,ID,44.471,-114.419
Abandoned Mine Land,USDA FS BOISE NF:URANIUM MILL TAILINGS,LOWMAN,ID,44.279,-114.513
Abandoned Mine Land,CONSTITUTION MILLSITE TAILINGS & ROCKDUM,PINEHURST,ID,47.538,-115.765
Abandoned Mine Land,DENVER TAILINGS PILE,PINEHURST,ID,47.489,-115.806
Abandoned Mine Land,DOUGLAS MINE,PINEHURST,ID,47.454,-115.815
Abandoned Mine Land,LIBERAL KING MILLSITE & TAILINGS,PINEHURST,ID,47.538,-115.765
Abandoned Mine Land,NABOB MILLSITE & MINE,PINEHURST,ID,47.538,-115.765
Abandoned Mine Land,USDA FS BOISE NF:BELSHAZZAR MINE,PLACERVILLE,ID,43.777,-115.989
Abandoned Mine Land,EASTERN MICHAUD FLATS CONTAMINATION,POCATELLO,ID,42.90111,-112.5225
Abandoned Mine Land,CONTINENTAL MINE AND MILL,PORTHILL,ID,48.621,-116.9
Abandoned Mine Land,SONNEMAN MINE & MILL,SILVER CITY,ID,42.745,-116.92
Abandoned Mine Land,BUNKER HILL MINING & METALLURGICAL COMPLEX,SMELTERVILLE,ID,47.54306,-116.1617
RCRA,Wheeling-Pittsburgh Steel Corp.,Follansbee,WV,40.344389,-80.606694
Abandoned Mine Land,MONSANTO CHEMICAL CO. (SODA SPRINGS PLANT),SODA SPRINGS,ID,42.68703,-111.5878
Abandoned Mine Land,CINNABAR MINE,STIBNITE,ID,44.921,-114.712
Abandoned Mine Land,STIBNITE/YELLOW PINE MINING AREA,STIBNITE,ID,44.8925,-115.34527
Abandoned Mine Land,TRIUMPH MINE TAILINGS PILES,TRIUMPH,ID,43.63,-114.277
Abandoned Mine Land,USDA FS PAYETTE NF: STIBNITE MINE AREA,YELLOW PINE,ID,43.203,-115.271
Abandoned Mine Land,USDA FS PAYETTE NF:CINNABAR MINE,YELLOW PINE,ID,44.922,-114.714
Abandoned Mine Land,LACLEDE STEEL COMPANY,ALTON,IL,38.877,-90.15
Abandoned Mine Land,CIRCLE SMELTING CORP.,BECKEMEYER,IL,38.60833,-89.42083
Abandoned Mine Land,MINERVA MINE #1,CAVE IN ROCK,IL,37.534,-88.15
Abandoned Mine Land,ST. LOUIS SMELTING & REFINING CO,COLLINSVILLE,IL,38.67,-88.018
Abandoned Mine Land,HEGELER ZINC,DANVILLE,IL,40.076,-87.65
Abandoned Mine Land,DEPUE/NEW JERSEY ZINC/MOBIL CHEMICAL CORP.,DEPUE,IL,41.32777,-89.30416
Abandoned Mine Land,SHANFELD IRON METAL COMPANY,EAST ST. LOUIS,IL,38.612,-90.152
Abandoned Mine Land,BAUTSCH-GREY MINE,GALENA,IL,42.356,-89.6
Abandoned Mine Land,INSPIRATION MINES,GALENA,IL,42.49,-89.573
Abandoned Mine Land,LITTLE GRANT MINE,GALENA,IL,42.47,-90.427
Abandoned Mine Land,EAGLE ZINC CO DIV T L DIAMOND,HILLSBORO,IL,39.166111,-89.473611
Abandoned Mine Land,MATTHIESSEN AND HEGELER ZINC COMPANY,LA SALLE,IL,41.342,-89.083
Abandoned Mine Land,"R. LAVIN & SONS, INC.",NORTH CHICAGO,IL,42.323,-87.842
Abandoned Mine Land,TRAILS ILLINOIS INDUSTRIAL PLATING,PEORIA,IL,40.708,-89.569
Abandoned Mine Land,ILLINOIS ZINC CO.,PERU,IL,41.325,-89.113
Abandoned Mine Land,ROSICLARE MINES,ROSICLARE,IL,37.429,-88.338
Abandoned Mine Land,SANDOVAL ZINC CO,SANDOVAL,IL,38.612,-88.892
Abandoned Mine Land,PALZO MINE SITE-SHAWNEE NATIONAL FOREST,STONEFORT,IL,37.65,-88.774
Abandoned Mine Land,ASARCO TAYLOR SPRINGS,TAYLOR SPRINGS,IL,39.131,-89.495
Abandoned Mine Land,TESTWORTH LABORATORY,COLUMBIA CITY,IN,41.153,-85.487
Abandoned Mine Land,"U.S. SMELTER AND LEAD REFINERY, INC.",EAST CHICAGO,IN,41.61652,-87.46333
Abandoned Mine Land,METALS REFINING COMPANY,HAMMOND,IN,41.604,-87.487
Abandoned Mine Land,MILLTOWN RESERVOIR SEDIMENTS,MILLTOWN,MT,46.86666,-113.8667
Abandoned Mine Land,PEABODY COAL CO LYNNVILLE MINE (SIA),LYNNVILLE,IN,38.126,-86.607
Abandoned Mine Land,GREEN VALLEY MINE (AMS),WEST TERRE HAUTE,IN,39.508,-86.483
Abandoned Mine Land,CHEROKEE COUNTY,GALENA,KS,37.00388,-94.82388
Abandoned Mine Land,EAGLE-PICHER SMELTER SITE,GALENA,KS,37.087,-94.628
Abandoned Mine Land,PRIME WESTERN SMELTER (OLD),GAS,KS,37.913,-94.655
Abandoned Mine Land,UNITED ZINC #1,IOLA,KS,37.92,-95.4
Abandoned Mine Land,WEST LA HARPE SMELTER SITE,LA HARPE,KS,37.915,-95.316
Abandoned Mine Land,NATIONAL SOUTHWIRE ALUMINUM CO.,HAWESVILLE,KY,37.94499,-86.78777
Abandoned Mine Land,KERRAMERICAN MINE (FORMER),BLUE HILL,ME,44.39,-68.62
Abandoned Mine Land,CALLAHAN MINING CORP,BROOKSVILLE (CAPE ROSIER),ME,44.35163,-68.81013
Abandoned Mine Land,SACO STEEL,SACO,ME,43.52,-70.455
Abandoned Mine Land,DENTON AVE. SITE,HAMTRAMCK,MI,42.387,-83.051
Abandoned Mine Land,TORCH LAKE,HOUGHTON COUNTY,MI,47.16971,-88.39778
Abandoned Mine Land,WESTERN MINERAL PRODUCTS,MINNEAPOLIS,MN,45.005,-92.746
Abandoned Mine Land,ANNAPOLIS LEAD MINE,ANNAPOLIS,MO,37.35555,-90.675
Abandoned Mine Land,TEDDER ROAD LEAD,BELGRADE,MO,37.8,-90.89
Abandoned Mine Land,BIG RIVER HILLS LEAD TAILINGS,BONNE TERRE,MO,37.941,-90.518
Abandoned Mine Land,ST JOE MINERALS CORP - BRUSHY CREEK DIV,BUNKER,MO,37.538,-91.147
Abandoned Mine Land,ST JOE MINERALS CORP - FLETCHER DIV,BUNKER,MO,37.467,-91.108
Abandoned Mine Land,FALLOW ROAD LEAD,CALEDONIA,MO,37.785,-90.775
Abandoned Mine Land,CENTRAL MINING DISTRICT-MONITEAU COUNTY,CALIFORNIA,MO,38.628,-92.566
Abandoned Mine Land,CENTRAL MINING DISTRICT-CAMDEN COUNTY,CAMDENTON,MO,38.009,-92.744
Abandoned Mine Land,CARTHAGE CITY AND EASTERN JASPER COUNTY LEAD,CARTHAGE,MO,37.176,-94.324
Abandoned Mine Land,SOUTHWEST MISSOURI LEAD-BARRY COUNTY,CASSVILLE,MO,36.677,-93.869
Abandoned Mine Land,BIG RIVER MINE TAILINGS/ST. JOE MINERALS CORP.,DESLOGE,MO,37.88638,-90.55
Abandoned Mine Land,DOE RUN MINE TAILINGS,DOE RUN,MO,37.741,-90.493
Abandoned Mine Land,ELVINS MINE TAILINGS,ELVINS,MO,37.843,-90.538
Abandoned Mine Land,HIGHWAY OO LEAD,FREDERICKTOWN,MO,37.606,-90.292
Abandoned Mine Land,MADISON COUNTY MINES,FREDERICKTOWN,MO,37.54611,-90.27611
Abandoned Mine Land,NEWTON COUNTY MINE TAILINGS,GRANBY,MO,36.9921,-94.3848
Abandoned Mine Land,JEFFERSON COUNTY LEAD,HILLSBORO,MO,38.255,-90.578
Abandoned Mine Land,STEPHENSON - BENNETT MINE,ORGAN,NM,32.403,-105.402
Abandoned Mine Land,CENTRAL MINING DISTRICT LEAD-COLE COUNTY,JEFFERSON CITY,MO,37.098,-89.547
Abandoned Mine Land,ORONOGO-DUENWEG MINING BELT,JOPLIN,MO,37.10111,-94.42056
Abandoned Mine Land,NATIONAL MINE TAILINGS,PARK HILLS,MO,37.862,-90.511
Abandoned Mine Land,WASHINGTON COUNTY LEAD DISTRICT-POTOSI,POTOSI,MO,37.936,-90.788
Abandoned Mine Land,SWEETWATER MINE,REYNOLDS,MO,37.359,-91.123
Abandoned Mine Land,CENTRAL MINING DISTRICT-MILLER COUNTY,TUSCUMBIA,MO,38.233,-92.458
Abandoned Mine Land,FRANKLIN COUNTY LEAD,UNION,MO,38.465,-91.011
Abandoned Mine Land,VALLES MINES COMPANY,VALLES MINES,MO,38.039,-90.497
Abandoned Mine Land,CENTRAL MINING DISTRICT-MORGAN COUNTY,VERSAILLES,MO,38.431,-92.844
Abandoned Mine Land,ST JOE MINERALS CORP - VIBURNUM,VIBURNUM,MO,37.728,-90.86
Abandoned Mine Land,WACO PITS,WACO,MO,37.228,-94.617
Abandoned Mine Land,ANACONDA CO. SMELTER,ANACONDA,MT,46.11666,-112.915
Abandoned Mine Land,BASIN MINING AREA,BASIN,MT,46.27277,-112.26333
Abandoned Mine Land,LADY LIETH MINE,BASIN,MT,46.392,-112.276
Abandoned Mine Land,MORNING MINE,BASIN,MT,46.365,-112.27
Abandoned Mine Land,"ANACONDA MINERALS CO, GREAT FALLS REF",BLACK EAGLE,MT,47.525,-110.718
Abandoned Mine Land,SILVER BOW CREEK/BUTTE AREA,BUTTE,MT,46.039,-112.7948
Abandoned Mine Land,MOUAT INDUSTRIES,COLUMBUS,MT,45.635,-109.2475
Abandoned Mine Land,GREAT REPUBLIC SMELTER,COOKE CITY,MT,46.158,-113.44
Abandoned Mine Land,NEW WORLD MINE,COOKE CITY,MT,45.072,-109.936
Abandoned Mine Land,BEAVERHEAD NATIONAL FOREST,DILLON,MT,45.225,-112.629
Abandoned Mine Land,ASARCO SODIUM - EAST HELENA,EAST HELENA,MT,45.032,-110.707
Abandoned Mine Land,EAST HELENA SITE,EAST HELENA,MT,46.58166,-111.9183
Abandoned Mine Land,GEORGETOWN RAILROAD,GEORGETOWN LAKE,MT,46.184,-112.742
Abandoned Mine Land,BARKER HUGHESVILLE MINING DISTRICT,GREAT FALLS,MT,47.08333,-110.63027
Brownfield,Albertsons grocery store,El Cajon,CA,32.796033,-116.96379
Abandoned Mine Land,MOAT'S RESIDENCE (LIBBY SISTER),GREAT FALLS,MT,47.509,-111.334
Abandoned Mine Land,SPRING MEADOWS,HELENA,MT,46.608,-112.073
Abandoned Mine Land,UPPER TENMILE CREEK MINING AREA,HELENA,MT,46.48208,-112.24513
Abandoned Mine Land,LIBBY ASBESTOS SITE,LIBBY,MT,48.39152,-115.55111
Abandoned Mine Land,UPPER BLACKFOOT MINING COMPLEX,LINCOLN,MT,47.026,-111.64
Abandoned Mine Land,BLM-LONDONERRY MINE/MAXVILLE TAILINGS,MAXVILLE,MT,46.473,-113.236
Abandoned Mine Land,RHODIA - MAIDEN ROCK MINE,MELROSE,MT,45.697,-112.737
Abandoned Mine Land,CLARK FORK RIVER BASIN,MISSOULA (ALSO OTHERS),MT,46.877,-112.003
Abandoned Mine Land,CARPENTER SNOW CREEK MINING DISTRICT,NEIHART,MT,46.96138,-110.72583
Abandoned Mine Land,RUMSEY TAILINGS,PHILIPSBURGH,MT,46.207,-113.239
Abandoned Mine Land,SUPERIOR WASTE ROCK,SUPERIOR,MT,47.24,-114.853
Abandoned Mine Land,WICKES/CORBIN MINING SITE,WICKES,MT,46.344,-111.89
Abandoned Mine Land,LOFLIN GOLD MINE,TRINITY,NC,35.74,-80.042
Abandoned Mine Land,FORMER CARTER WHITE LEAD FACILITY/AREA,OMAHA,NE,41.284,-95.897
Abandoned Mine Land,FORMER OMAHA WHITE LEAD,OMAHA,NE,41.242,-95.943
Abandoned Mine Land,OMAHA LEAD,OMAHA,NE,41.26777,-95.92972
Abandoned Mine Land,ORE HILL MINE SITE,WARREN,NH,43.93,-71.95
Abandoned Mine Land,JERSEY TYLER FOUNDRY,BRIDGETON,NJ,39.445,-75.217
Abandoned Mine Land,GLEN RIDGE RADIUM SITE,GLEN RIDGE,NJ,40.78818,-74.2125
Abandoned Mine Land,WR GRACE HAMILTON TWP,HAMILTON TOWNSHIP,NJ,40.243,-74.726
Abandoned Mine Land,MONTCLAIR/WEST ORANGE RADIUM SITE,MONTCLAIR/WEST ORANGE,NJ,40.7929,-74.2257
Abandoned Mine Land,U.S. RADIUM CORP.,ORANGE,NJ,40.78138,-74.22861
Abandoned Mine Land,BECLABITO AGGREGATED URANIUM MINES,BECLABITO,NM,36.692,-107.16
Abandoned Mine Land,HORIZON POTASH MINE,CARLSBAD,NM,32.425,-103.76
Abandoned Mine Land,CIMARRON MINING CORP.,CARRIZOZO,NM,33.64346,-105.8647
Abandoned Mine Land,UNITED NUCLEAR CORP.,CHURCH ROCK,NM,35.643,-108.5
Abandoned Mine Land,EASTERN NAVAJO AGGREGATED URANIUM MINES,CROWNPOINT,NM,35.678,-107.847
Abandoned Mine Land,NACIMIENTO MINE/MILL,CUBA,NM,36.987,-105.093
Abandoned Mine Land,HOMESTAKE MINING CO.,MILAN,NM,35.243,-107.863
Abandoned Mine Land,KING TUTT MESA AGGREGATE SITE,OAK SPRINGS,NM,36.692,-107.16
Abandoned Mine Land,NAVAJO - BEGAY #1 URANIUM MINE,OAK SPRINGS,NM,36.692,-107.16
Abandoned Mine Land,NAVAJO - BEGAY #2 URANIUM MINE,OAK SPRINGS,NM,36.692,-107.16
Abandoned Mine Land,NAVAJO - CARRIZO MINE,OAK SPRINGS,NM,36.692,-107.16
Abandoned Mine Land,NAVAJO - FRANKS PT./VCA PLOT #6 UR MINE,OAK SPRINGS,NM,36.692,-107.16
Abandoned Mine Land,NAVAJO - JUNCTION CLAIM URANIUM MINE,OAK SPRINGS,NM,36.692,-107.16
Abandoned Mine Land,NAVAJO - SALT CANYON MINES,OAK SPRINGS,NM,36.692,-107.16
Abandoned Mine Land,NAVAJO - UPPER SALT ROCK URANIUM MINE,OAK SPRINGS,NM,36.692,-107.16
Brownfield,ARCO Facility #9577,El Cajon,CA,32.794482,-116.96747
Abandoned Mine Land,NAVAJO RED WASH POINT URAN. MINE,OAK SPRINGS,NM,36.692,-107.16
Abandoned Mine Land,NAVAJO VCA PLOT 7 URANIUM MINE,OAK SPRINGS,NM,36.692,-107.16
Abandoned Mine Land,BLUEWATER URANIUM MINE,PREWITT,NM,35.363,-107.957
Abandoned Mine Land,"MOLYCORP, INC.",QUESTA,NM,36.69833,-105.505
Abandoned Mine Land,"NAVAJO - WILLIAMS POINT MINE, VCA #4",RED VALLEY,NM,36.692,-107.16
Abandoned Mine Land,SANOSTEE AGGREGATED URANIUM MINES,SANOSTEE,NM,36.435,-107.13
Abandoned Mine Land,CLEVELAND MILL,SILVER CITY,NM,32.8626,-108.2558
Abandoned Mine Land,WHITEWATER & HANOVER CREEKS,SILVER CITY,NM,32.773,-107.72
Abandoned Mine Land,TERRERO MINE,TERRERO,NM,34.759,-104.332
Abandoned Mine Land,TYRONE MINE,TYRONE,NM,32.658,-107.64
Abandoned Mine Land,CARSON RIVER MERCURY SITE,DAYTON,NV,39.23195,-119.5892
Abandoned Mine Land,ARGENTUM MILL,DYER,NV,37.682,-117.915
Abandoned Mine Land,BARRICK GOLD STRIKE MINE - BLM,EUREKA,NV,39.513,-114.038
Abandoned Mine Land,OSAGE MILLSITE,SANDY VALLEY,NV,35.782,-114.675
Abandoned Mine Land,UNITED MINING CORP.,VIRGINIA CITY,NV,39.313,-118.353
Abandoned Mine Land,ANACONDA COPPER CO,YERINGTON,NV,38.998,-118.801
Abandoned Mine Land,LI TUNGSTEN CORP.,GLEN COVE,NY,40.86092,-73.64077
Abandoned Mine Land,ORMET CORP.,HANNIBAL,OH,39.705,-80.84166
Abandoned Mine Land,NATIONAL ZINC CORP.,BARTLESVILLE,OK,36.74666,-95.995
Abandoned Mine Land,BLACKWELL ZINC,BLACKWELL,OK,36.808,-96.7
Abandoned Mine Land,TULSA FUEL AND MANUFACTURING,COLLINSVILLE,OK,36.34625,-95.84861
Abandoned Mine Land,GAINES CREEK WATERSHED COAL MINES,GOWEN,OK,34.877,-94.523
Abandoned Mine Land,TAR CREEK (OTTAWA COUNTY),OTTAWA COUNTY,OK,36.9436,-94.84191
Abandoned Mine Land,TELEDYNE WAH CHANG,ALBANY,OR,44.66,-123.0633
Abandoned Mine Land,OREGON CHIEF MINE,BAKER CITY,OR,44.85,-118.285
Abandoned Mine Land,USDOI BLM BALM CREEK- POORMAN MINE COMPLEX,BAKER CITY,OR,44.917,-117.474
Abandoned Mine Land,BRETZ MINE,BASQUE,OR,42.044,-117.901
Abandoned Mine Land,OPALITE MINE,BASQUE,OR,42.053,-118.037
Abandoned Mine Land,COLUMBIA MINE,BOURNE,OR,44.831,-118.2
Abandoned Mine Land,EUREKA & EXCELSIOR MINE,BOURNE,OR,44.831,-118.2
Abandoned Mine Land,GOLCONDA MINE,BOURNE,OR,44.82,-118.206
Abandoned Mine Land,NORTH POLE MINE,BOURNE,OR,44.843,-117.184
Abandoned Mine Land,BLACK BUTTE MINE,COTTAGE GROVE,OR,43.578,-122.934
Abandoned Mine Land,IBEX MINE,GRANITE,OR,44.813,-118.298
Brownfield,Former Utica Mine,Deering,AK,65.910278,-162.991944
Abandoned Mine Land,FREMONT NATIONAL FOREST/WHITE KING AND LUCKY LASS URANIUM MINES (USDA),LAKEVIEW,OR,42.33611,-120.54166
Abandoned Mine Land,USDA FS OCHOCO NF: AMITY MINE,PRINEVILLE,OR,44.21,-120.192
Abandoned Mine Land,USDA FS OCHOCO NF: BLUE RIDGE MINE,PRINEVILLE,OR,44.211,-120.192
Abandoned Mine Land,USDA FS OCHOCO NF:MOTHERLODE MINE,PRINEVILLE,OR,44.333,-120.358
Abandoned Mine Land,FORMOSA MINE,RIDDLE,OR,42.8517,-123.3847
Abandoned Mine Land,BELLE OF BAKER MINE,SUMPTER,OR,44.821,-118.259
Abandoned Mine Land,CALIFORNIA MINE/MILL,SUMPTER,OR,44.865,-118.276
Abandoned Mine Land,GRAND TRUNK MINE,SUMPTER,OR,44.981,-118.277
Abandoned Mine Land,IMPERIAL MINE/MILL,SUMPTER,OR,44.864,-118.267
Abandoned Mine Land,NONPAREIL MINE RETORT,SUTHERLIN,OR,43.415,-123.16
Abandoned Mine Land,MARTIN-MARIETTA ALUMINUM CO.,THE DALLES,OR,45.62443,-121.2056
Abandoned Mine Land,REYNOLDS METALS COMPANY,TROUTDALE,OR,45.5569,-122.39916
Abandoned Mine Land,US BUREAU OF MINES SITE,BRUCETON,PA,40.55,-79.942
Abandoned Mine Land,FOOTE MINERAL CO.,EAST WHITELAND TOWNSHIP,PA,40.04,-75.58527
Abandoned Mine Land,SHARON STEEL CORP (FARRELL WORKS DISPOSAL AREA),HICKORY TOWNSHIP,PA,41.19861,-80.51027
Abandoned Mine Land,"JACKS CREEK/SITKIN SMELTING & REFINING, INC.",MAITLAND,PA,40.64153,-77.47528
Abandoned Mine Land,GRACE MINE,MORGANTOWN,PA,40.183,-75.892
Abandoned Mine Land,PALMERTON ZINC PILE,PALMERTON,PA,40.80833,-75.58333
Abandoned Mine Land,FRANKLIN SLAG PILE (MDC),PHILADELPHIA,PA,39.98319,-75.08388
Abandoned Mine Land,FRANKLIN SMELTING,PHILADELPHIA,PA,39.989,-75.085
Abandoned Mine Land,UNITED SMELTING AND REFINING COMPANY/LEAD SMELTERS INITIATIVE,PHILADELPHIA,PA,39.938,-75.171
Abandoned Mine Land,BUTLER MINE TUNNEL,PITTSTON TOWNSHIP,PA,41.3268,-75.7899
Abandoned Mine Land,BREWER GOLD MINE,JEFFERSON,SC,34.652,-80.411
Abandoned Mine Land,MACALLOY CORPORATION,NORTH CHARLESTON,SC,32.83805,-79.95119
Abandoned Mine Land,NORTH CAVE HILLS MINING SITES,BUFFALO,SD,45.846,-103.475
Abandoned Mine Land,GILT EDGE MINE,LEAD,SD,44.32805,-103.6743
Abandoned Mine Land,RICHMOND HILL PROJECT,LEAD,SD,44.376,-102.114
Abandoned Mine Land,WASP #2 TAILINGS,LEAD,SD,44.319,-103.759
Abandoned Mine Land,WHITEWOOD CREEK,WHITEWOOD,SD,44.3553,-103.7615
Abandoned Mine Land,CHROMIUM MINING & SMELTING CORP,MEMPHIS,TN,35.275,-88.042
Abandoned Mine Land,CHEMET CO.,MOSCOW,TN,35.08361,-89.37249
Abandoned Mine Land,RSR CORPORATION,DALLAS,TX,32.77694,-96.8725
Abandoned Mine Land,TEX-TIN CORP.,TEXAS CITY,TX,29.35666,-94.94166
Abandoned Mine Land,5M INC. STAGING AREA,2 MILES FROM LEEDS,UT,37.247,-113.375
Abandoned Mine Land,ANTIMONY MILLS,ANTIMONY,UT,38.099,-111.899
Abandoned Mine Land,LARK WASTE ROCK AND TAILINGS (KENNECOTT),BINGHAM CANYON,UT,40.533,-111.875
Abandoned Mine Land,KING EDWARD MINE,BLANDING,UT,37.774,-109.702
Abandoned Mine Land,RAINY DAY MINES,BOULDER TOWN,UT,37.833,-111
Abandoned Mine Land,DUTCHESS MINE,BULLFROG,UT,37.746,-110.986
Abandoned Mine Land,OPERATION MINE SHAFT,CEDAR CITY,UT,37.772,-113.171
Abandoned Mine Land,BINGHAM RESERVOIR,COPPERTON,UT,40.562,-111.917
Abandoned Mine Land,KENNECOTT (SOUTH ZONE),COPPERTON,UT,40.53,-112.15
Abandoned Mine Land,WINNAMUCK SMELTER,COPPERTON,UT,40.558,-111.85
Abandoned Mine Land,SILVER PASS BIG CANYON,ELBERTA,UT,39.952,-112.046
Abandoned Mine Land,EUREKA MILLS,EUREKA,UT,39.95555,-112.11555
Abandoned Mine Land,HOMANSVILLE MILLS,EUREKA,UT,39.976,-112.08
Abandoned Mine Land,MAMMOTH MILLS AND SMELTER,EUREKA,UT,39.925,-112.127
Abandoned Mine Land,NORTH LILLY MINING PCB,EUREKA,UT,39.923,-112.146
Abandoned Mine Land,SILVER CITY MILLS,EUREKA,UT,39.912,-112.123
Abandoned Mine Land,TINTIC STANDARD REDUCTION MILL,GENOLA,UT,39.958,-110.146
Abandoned Mine Land,VIPONT MINE,GROUSE CREEK,UT,41.967,-112.15
Abandoned Mine Land,BUTTERFIELD MINE (ST. JOE'S TUNNEL),HERRIMAN,UT,40.5,-111.875
Abandoned Mine Land,FRYE CANYON TAILING,HITE,UT,37.625,-109.858
Abandoned Mine Land,KIMBERLY MILL,JUNCTION,UT,38.502,-112.331
Abandoned Mine Land,BIG HILL/CHLORIDE CHIEF MINES,LEEDS,UT,37.244,-112.639
Abandoned Mine Land,SOUTHWEST ASSAY SITE,LEEDS,UT,37.259,-113.373
Abandoned Mine Land,WESTERN GOLD FLOATATION MILL,LEEDS,UT,37.251,-112.629
Abandoned Mine Land,KENNECOTT (NORTH ZONE),MAGNA,UT,40.75,-112.125
Abandoned Mine Land,BULLION CANYON MILLS,MARYSVALE,UT,38.427,-112.286
Abandoned Mine Land,BULLY BOY MILL,MARYSVALE,UT,38.413,-112.328
Abandoned Mine Land,DALTON MILL,MARYSVALE,UT,38.417,-112.319
Abandoned Mine Land,MIDVALE SLAG,MIDVALE,UT,40.61833,-111.9172
Abandoned Mine Land,SHARON STEEL CORP. (MIDVALE TAILINGS),MIDVALE,UT,40.60806,-111.9142
Abandoned Mine Land,SHERIDAN HILL SMELTER,MIDVALE,UT,40.675,-110.097
Abandoned Mine Land,UNITED SMELTING REFINING AND MINING CO,MIDVALE,UT,40.609,-110.085
Abandoned Mine Land,BEAVER COUNTY TAILINGS/WASTE ROCK,MILFORD,UT,38.399,-113.014
Abandoned Mine Land,MILFORD MILL AND SMELTER,MILFORD,UT,38.398,-112.988
Abandoned Mine Land,LATHROP CANYON ABANDONED URANIUM MINES,MOAB,UT,38.405,-109.807
Abandoned Mine Land,MONTICELLO MILL TAILINGS (USDOE),MONTICELLO,UT,37.86333,-109.3483
Abandoned Mine Land,MONTICELLO RADIOACTIVELY CONTAMINATED PROPERTIES,MONTICELLO,UT,37.86388,-109.33361
Abandoned Mine Land,TAYLOR REID #1 & 2 MINES,MONUMENT VALLEY,UT,37.1,-109.683
Abandoned Mine Land,WHIRLWIND MINE,MONUMENT VALLEY,UT,37.1,-109.683
Abandoned Mine Land,GERMANIA SMELTING & REFINING COMPANY,MURRAY,UT,40.664,-110.106
Abandoned Mine Land,MORGAN OR HANOVER SMELTING WORKS,MURRAY,UT,40.679,-110.108
Abandoned Mine Land,MURRAY SMELTER,MURRAY CITY,UT,40.65833,-111.89111
Abandoned Mine Land,OPHIR MILLS AND SMELTER,OPHIR,UT,40.221,-112.153
Abandoned Mine Land,EMPIRE CANYON,PARK CITY,UT,40.632,-110.502
Abandoned Mine Land,MARSAC MILLS,PARK CITY,UT,40.645,-111.496
Abandoned Mine Land,RICHARDSON FLAT TAILINGS,PARK CITY,UT,40.67833,-111.4583
Abandoned Mine Land,SILVER MAPLE CLAIMS,PARK CITY,UT,40.669,-111.484
Abandoned Mine Land,VERMICULITE INTERMOUNTAIN,SALT LAKE CITY,UT,40.767,-111.901
Abandoned Mine Land,DAVENPORT AND FLAGSTAFF SMELTERS,SANDY,UT,40.57361,-111.79194
Abandoned Mine Land,FLAGSTAFF SMELTER,SANDY,UT,40.65,-110.117
Abandoned Mine Land,LITTLE COTTONWOOD SMELTER,SANDY,UT,40.742,-110.167
Abandoned Mine Land,USFS-SANTAQUIN MUDFLOW,SANTAQUIN,UT,39.984,-111.764
Abandoned Mine Land,KENNECOTT EVAPORATION PONDS,SOUTH JORDAN,UT,40.561,-110.012
Abandoned Mine Land,PIONEER 3-STAMP MILL,SOUTH OF LEEDS,UT,37.134,-113.222
Abandoned Mine Land,BAUER TAILINGS,STOCKTON,UT,40.471,-112.368
Abandoned Mine Land,JACOBS SMELTER,STOCKTON,UT,40.45416,-112.35833
Abandoned Mine Land,INTERNATIONAL SMELTING AND REFINING,TOOELE,UT,40.55277,-112.22722
Abandoned Mine Land,TOOELE VALLEY RAILROAD,TOOELE,UT,40.531,-112.302
Abandoned Mine Land,JORDAN VIEW LOT,WEST JORDAN,UT,40.612,-110.063
Abandoned Mine Land,KERN RIVER/BINGHAM CREEK PIPELINE,WEST JORDAN,UT,40.562,-111.971
Abandoned Mine Land,LOUISA MINE (VA VERMICULITE LTD.),LOUISA,VA,38.049,-78.069
Abandoned Mine Land,U.S. TITANIUM,PINEY RIVER,VA,37.70833,-79.01666
Abandoned Mine Land,PIKE HILL COPPER MINE,CORINTH,VT,44.05733,-72.30691
Abandoned Mine Land,VERMONT ASBESTOS GROUP MINE,LOWELL AND EDEN,VT,44.75,-72.517
Abandoned Mine Land,ELIZABETH MINE,STRAFFORD,VT,43.82388,-72.32888
Abandoned Mine Land,ELY COPPER MINE,VERSHIRE,VT,43.92744,-72.2855
Abandoned Mine Land,USDOI BLM CLEVELAND MINE & MILL SITE,HUNTERS,WA,48.119,-118.037
Abandoned Mine Land,ANDERSON-CALHOUN MINE/MILL,LEADPOINT,WA,48.92,-117.589
Abandoned Mine Land,SILVER MOUNTAIN MINE,LOOMIS,WA,48.745,-119.557
Abandoned Mine Land,KAISER ALUMINUM (MEAD WORKS),MEAD,WA,47.755,-117.3767
Abandoned Mine Land,JOSEPHINE MINE,METALIINE FALLS,WA,48.88,-117.371
Abandoned Mine Land,BLUE BUCKET MINE,METALINE,WA,48.844,-117.398
Abandoned Mine Land,ORIOLE MINE,METALINE,WA,48.86,-117.391
Abandoned Mine Land,JOSEPHINE MILL # 1 AKA OLD  JOSEPHINE MILL,METALINE FALLS,WA,48.875,-117.38
Abandoned Mine Land,USDOI BLM JOSEPHINE MILL #2 AKA NEW JOSEPHINE MILL,METALINE FALLS,WA,48.88,-117.373
Abandoned Mine Land,USDOI BLM KABBA TEXAS MINE,NIGHTHAWK,WA,48.707,-118.563
Abandoned Mine Land,"SIERRA ZINC MINE/MILL, A.K.A. BLUE RIDGE MINE/MILL",NORTHPORT,WA,48.775,-117.668
Abandoned Mine Land,"COMMENCEMENT BAY, NEAR SHORE/TIDE FLATS",PIERCE COUNTY,WA,47.26666,-122.41666
Abandoned Mine Land,HECLA KNOB HILL MINE,REPUBLIC,WA,48.673,-118.759
Abandoned Mine Land,SOUTH PENN MINE,REPUBLIC,WA,48.69,-118.756
Abandoned Mine Land,ASARCO INC,TACOMA,WA,47.237,-121.567
Abandoned Mine Land,ALDER MINE,TWISP,WA,48.323,-120.092
Abandoned Mine Land,ALCOA (VANCOUVER SMELTER),VANCOUVER,WA,45.64943,-122.7318
Abandoned Mine Land,MIDNITE MINE,WELLPINIT,WA,47.9375,-118.09416
Abandoned Mine Land,SPELTER ZINC PLANT,CLARKSBURG,WV,39.433,-80.318
Abandoned Mine Land,FAYETTEVILLE MINE REFUSE DUMP,OAK,WV,38.067,-81.148
Abandoned Mine Land,FERRIS HAGGERTY MINE,BAGGS,WY,41.184,-106.929
Brownfield,"3130, 3142, and 3150 Mountain View Drive",Anchorage,AK,61.22483,-149.79883
Brownfield,3901 Mountain View Drive,Anchorage,AK,61.2244,-149.808
Brownfield,Mountain View Subdivision b/w 5th Ave. & Pine St.,Anchorage,AK,61.2226,-149.8192
Brownfield,Former West Cook Inlet Construction Yard,Beluga,AK,61.148333,-151.075833
Brownfield,Columbia Ward Fisheries Facility,Chignik Lagoon,AK,56.317889,-158.587611
Brownfield,License to Enter Properties (northern grouping),Chignik Lagoon,AK,56.317889,-158.58761
Brownfield,License to Enter Properties (southern grouping),Chignik Lagoon,AK,56.317889,-158.58761
Brownfield,Old Dumpsite,Chignik Lagoon,AK,56.317889,-158.58761
Brownfield,Old Dump at Joe Ward Slough,Fort Yukon,AK,66.571111,-145.281111
Brownfield,Log Storage Area,Metlakatla,AK,55.0372,-131.5735
Brownfield,Revetment Vehicle Dump,Metlakatla,AK,55.0372,-131.5735
Brownfield,Skater's Lake Vehicle Dump,Metlakatla,AK,55.1225,-131.5705
Brownfield,Alaska Packers Cannery,Pilot Point,AK,57.552333,-157.578389
Brownfield,Old Airport Runway,Saint Michael,AK,63.4825,-162.0303
Brownfield,Chem 4,Demopolis,AL,32.468333,-87.958333
Brownfield,Sloss Property at Coalburg,Fultondale,AL,33.60833,-86.8549
Brownfield,Walkers Chapel Road Mine Drainage,Fultondale,AL,33.616098,-86.841231
Brownfield,City of Mobile Former Police Firing Range,Mobile,AL,30.72833,-88.204167
Brownfield,Keep Mobile Beautiful Recycling Center,Mobile,AL,30.680566,-88.071111
Brownfield,Triple A Welding Manufacturing & Machine Corp,Sheffield,AL,34.770556,-87.668611
Brownfield,Langdale Mill,Valley,AL,32.814444,-85.169722
Brownfield,Riverdale Mill,Valley,AL,32.790278,-85.142778
Brownfield,Huntco-JMS Processing,Blytheville,AR,35.943889,-89.733333
Brownfield,Camden-Buck's Garage,Camden,AR,33.57394,-92.82712
Brownfield,Thrower's Site (White City Buildings),Camden,AR,33.5796,-92.8271
Brownfield,R & P Electroplating,Fayetteville,AR,36.040054,-94.140312
Brownfield,R&P Electroplating,Fayetteville,AR,36.04016,-94.1356
Brownfield,Hadco of Arkansas,Gillham,AR,34.18797,-94.33155
Brownfield,T&S Sawmill,Heber Springs,AR,35.816389,-92.052778
Brownfield,Cleburne Hotel,Helena,AR,34.5285,-90.58669
Brownfield,McVey Property,Helena,AR,34.52489,-90.5868
Brownfield,Nu Way Laundry-Mat,Helena,AR,34.5267,-90.58675
Brownfield,Phillips College Property,Helena,AR,34.52665,-90.58457
Brownfield,Stayton Auto Repair,Helena,AR,34.52309,-90.58685
Brownfield,Martindale Clinic,Hope,AR,33.66887,-93.59219
Brownfield,Building a Better Life Mentor Organization,Jacksonville,AR,34.861389,-92.11944
Brownfield,Heifer - Superior (Central Transport),Little Rock,AR,34.743056,-92.256389
Brownfield,"Carver Alumni Association, Inc.",Lonoke,AR,34.7807,-91.8968
Brownfield,I-Can,Lonoke,AR,34.78544,-91.89936
Brownfield,Butler Elementary,Madison,AR,35.01255,-90.72376
Brownfield,Smart House - North Tract,North Little Rock,AR,34.7575,-92.276111
Brownfield,Smart House - South Tract,North Little Rock,AR,34.756111,-92.277222
Brownfield,The City of Pine Bluff,Pine Bluff,AR,34.22001,-92.0023
Brownfield,Helena Sportswear,West Helena,AR,34.526333,-90.643666
Brownfield,"Brownfields Border Property-Naco, AZ",Naco,AZ,31.407778,-110.133056
Brownfield,"LRT 20.2693, 2447 E. Jefferson",Phoenix,AZ,33.44774,-112.02965
Brownfield,"LRT 30.1081, 5108 N. 19th Avenue",Phoenix,AZ,33.51208,-112.09932
Brownfield,"LRT 30.2191, 2401 N. Central Avenue",Phoenix,AZ,33.47623,-112.07304
Brownfield,"LRT 30.2211, 2530 N. Central Avenue",Phoenix,AZ,33.47623,-112.07304
Brownfield,"LRT 30.2381/2052, Central and Camelback Property",Phoenix,AZ,33.51048,-112.07452
Brownfield,"LRT 30.3332, 901 E. Jefferson",Phoenix,AZ,33.44746,-112.06193
Brownfield,Former Tri-City Landfill,Scottsdale,AZ,33.273,-111.5054
Brownfield,21 W. 5th Street & 534 N. Ash Avenue,Tucson,AZ,32.22927,-110.97214
Brownfield,2437 N. Oracle Road,Tucson,AZ,32.25138,-110.97823
Brownfield,41 E. 6th Street,Tucson,AZ,32.227922,-110.970479
Brownfield,911 N. 13th,Tucson,AZ,32.233591,-110.979713
Brownfield,Greyhound Bus Depot,Tucson,AZ,32.2218,-110.9656
Brownfield,Apn 201-254-016,Alton,CA,40.5479,-124.14201
Brownfield,Apn 201-254-017,Alton,CA,40.545803,-124.1422
Brownfield,Kwikset,Anaheim,CA,33.83246,-117.90754
Brownfield,"Vineyard Townhomes, Vine Street Apartments",Anaheim,CA,33.83428,-117.90485
Brownfield,Antioch Radiator Service,Antioch,CA,38.016994,-121.818333
Brownfield,Assistance League Building,Bakersfield,CA,35.37685,-119.01044
Brownfield,Proposed Robert Ovrom Park & Community Day School,Burbank,CA,34.177317,-118.303853
Brownfield,Culver City Dog Park,Culver City,CA,34.013889,-118.386389
Brownfield,Former Lerner's Service Station,Duarte,CA,34.14094,-117.95989
Brownfield,1103 Weeks Street,East Palo Alto,CA,37.47027,-122.13027
Brownfield,1800 Bay Road,East Palo Alto,CA,37.47213,-122.13374
Brownfield,1802-1804 Bay Road,East Palo Alto,CA,37.47212,-122.134
Brownfield,1895 East Bayshore Road,East Palo Alto,CA,37.45453,-122.1302
Brownfield,791-805 Runnymede Street,East Palo Alto,CA,37.46852,-122.13742
Brownfield,855 Runnymede Street,East Palo Alto,CA,37.46856,-122.13639
Brownfield,872 Runnymede,East Palo Alto,CA,37.46856,-122.1355
Brownfield,875 O'Conner Street,East Palo Alto,CA,37.44424,-122.11736
Brownfield,Cooley Landing,East Palo Alto,CA,37.47567,-122.12577
Brownfield,NE Corner of University & Bay,East Palo Alto,CA,37.47171,-122.13966
Brownfield,215 E Main,El Cajon,CA,32.794596,-116.96023
Brownfield,A-1 Self Storage,El Cajon,CA,32.795816,-116.96926
Brownfield,Blockbuster Video,El Cajon,CA,32.795235,-116.96427
Brownfield,Carcoa,El Cajon,CA,32.794505,-116.96972
Brownfield,Champion Collision & Paint,El Cajon,CA,32.796024,-116.9749
Brownfield,Chevron,El Cajon,CA,32.794673,-116.97515
Brownfield,City of El Cajon,El Cajon,CA,32.796909,-116.95886
Brownfield,Condos,El Cajon,CA,32.798248,-116.96098
Brownfield,East County Regional Center,El Cajon,CA,32.796909,-116.95886
Brownfield,Former Alex's Discount Furniture,El Cajon,CA,32.794687,-116.96334
Brownfield,Former Alex's Discount Furniture,El Cajon,CA,32.794514,-116.96299
Brownfield,Former Chevron,El Cajon,CA,32.80124,-116.96279
Brownfield,Former Mobil,El Cajon,CA,32.801656,-116.96286
Brownfield,KKAR Smog and Auto Services,El Cajon,CA,32.794621,-116.95784
Brownfield,Residence,El Cajon,CA,32.794313,-116.96337
Brownfield,Residence,El Cajon,CA,32.79425,-116.96337
Brownfield,Residence,El Cajon,CA,32.79419,-116.96337
Brownfield,Residence,El Cajon,CA,32.794069,-116.96336
Brownfield,SDG&E,El Cajon,CA,32.79628,-116.97278
Brownfield,SDG&E,El Cajon,CA,32.79548,-116.97368
Brownfield,SDG&E,El Cajon,CA,32.795321,-116.97284
Brownfield,SDG&E,El Cajon,CA,32.795449,-116.97219
Brownfield,SDG&E,El Cajon,CA,32.795391,-116.9715
Brownfield,Shell,El Cajon,CA,32.801166,-116.96199
Brownfield,Sunshine Ave. Complex,El Cajon,CA,32.794414,-116.96517
Brownfield,Suzuki of El Cajon,El Cajon,CA,32.795322,-116.96758
Brownfield,Toyota of El Cajon Used Cars and Brooke Auto Insurance,El Cajon,CA,32.794513,-116.9705
Brownfield,Unocal,El Cajon,CA,32.795233,-116.97512
Brownfield,4062 Hollis,Emeryville,CA,37.83006,-122.28551
Brownfield,4369 Adeline Street - Thamkul,Emeryville,CA,37.83451,-122.27695
Brownfield,5701 Hollis,Emeryville,CA,37.83864,-122.28884
Brownfield,AC Transit,Emeryville,CA,37.8336,-122.284
Brownfield,Ambassador,Emeryville,CA,37.82777,-122.28043
Brownfield,Black & White (B&W),Emeryville,CA,37.83183,-122.27982
Brownfield,Dutro,Emeryville,CA,37.8435,-122.2892
Brownfield,Ennis/AC Transit,Emeryville,CA,37.83364,-122.27953
Brownfield,Green City Lofts,Emeryville,CA,37.83226,-122.27754
Brownfield,Jug Liquor,Emeryville,CA,37.82821,-122.27872
Brownfield,Miller Property,Emeryville,CA,37.84089,-122.28882
Brownfield,Viacom Mound,Emeryville,CA,37.8634,-122.2832
Brownfield,Former Foundry/Old Carson Mill,Eureka,CA,40.80797,-124.152541
Brownfield,Old Carson Mill,EUREKA,CA,40.80797,-124.152541
Brownfield,County Hall Records,Fairfield,CA,38.249059,-122.0421
Brownfield,Apn 401-281-001,Fairhaven,CA,40.783119,-124.200667
Brownfield,Proposed Valentine Elementary School,Fresno,CA,36.77036,-119.85364
RCRA,Ge Silicones Wv Llc,Friendly,WV,39.489444,-81.09
Brownfield,Blue Lake Forest Products,Glendale,CA,40.901944,-124.019167
Brownfield,Blue Lake Forest Products,Glendale,CA,40.901944,-124.019167
Brownfield,"Blue Lake Forest Products, 516-101-084",Glendale,CA,40.901944,-124.019167
Brownfield,"Blue Lake Forest Products, APN 516-101-017",Glendale,CA,40.901194,-124.020792
Brownfield,"Blue Lake Forest Products, APN 516-101-040",Glendale,CA,40.903972,-124.020792
Brownfield,"Blue Lake Forest Products, APN 516-101-041",Glendale,CA,40.903972,-124.020792
Brownfield,"Blue Lake Forest Products, APN 516-101-060",Glendale,CA,40.901944,-124.019167
Brownfield,"Blue Lake Forest Products, APN 516-101-063",Glendale,CA,40.901944,-124.019167
Brownfield,"Blue Lake Forest Products, APN 516-101-064",Glendale,CA,40.903972,-124.020792
Brownfield,"Blue Lake Forest Products, APN 516-101-068",Glendale,CA,40.903972,-124.020792
Brownfield,"Blue Lake Forest Products, APN 516-111-060",Glendale,CA,40.901944,-124.019167
Brownfield,"Blue Lake Forest Products, APN 516-151-019",Glendale,CA,40.901944,-124.019167
Brownfield,Proposed Hercules Middle School,Hercules,CA,38.01752,-122.28342
Brownfield,East Los Angeles High School #1,Los Angeles,CA,34.090767,-118.356783
Brownfield,MTA Avalon Facility,Los Angeles,CA,33.99387,-118.26572
Brownfield,Proposed Mendota Junior High School,Mendota,CA,36.7475,-120.381194
Brownfield,Former Simpson Cleaner's Property,Merced,CA,37.30256,-120.48508
Brownfield,DPRA Site 1 - Parcel A,National City,CA,32.67081,-117.11198
Brownfield,DPRA Site 1 - Parcel B,National City,CA,32.67081,-117.11198
Brownfield,DPRA Site 1 - Parcel C,National City,CA,32.67081,-117.11198
Brownfield,DPRA Site 1 - Parcel D,National City,CA,32.67081,-117.11198
Brownfield,DPRA Site 1 - Parcel E,National City,CA,32.67081,-117.11198
Brownfield,DPRA Site 1 - Parcel F,National City,CA,32.67081,-117.11198
Brownfield,DPRA Site 1 - Parcel G,National City,CA,32.67081,-117.11198
Brownfield,DPRA Site 1 - Parcel H,National City,CA,32.67081,-117.11198
Brownfield,DPRA Site 1 - Parcel I,National City,CA,32.67081,-117.11198
Brownfield,DPRA Site 10 - Parcel A,National City,CA,32.6654,-117.11198
Brownfield,DPRA Site 10 - Parcel B,National City,CA,32.6654,-117.11198
Brownfield,DPRA Site 10 - Parcel C,National City,CA,32.6654,-117.11198
Brownfield,DPRA Site 10 - Parcel D,National City,CA,32.6654,-117.11198
Brownfield,DPRA Site 11 - Parcel A,National City,CA,32.6618,-117.10984
Brownfield,DPRA Site 11 - Parcel B,National City,CA,32.6636,-117.10984
Brownfield,DPRA Site 11 - Parcel C,National City,CA,32.6636,-117.11198
Brownfield,DPRA Site 11 - Parcel D,National City,CA,32.6618,-117.10984
Brownfield,DPRA Site 11 - Parcel E,National City,CA,32.6636,-117.10984
Brownfield,DPRA Site 11 - Parcel F,National City,CA,32.6636,-117.10984
Brownfield,DPRA Site 11 - Parcel G,National City,CA,32.6618,-117.10984
Brownfield,DPRA Site 11 - Parcel H,National City,CA,32.6636,-117.10984
Brownfield,DPRA Site 11 - Parcel I,National City,CA,32.6636,-117.10984
Brownfield,DPRA Site 12,National City,CA,32.6636,-117.10984
Brownfield,DPRA Site 13 - Parcel A,National City,CA,32.6618,-117.10984
Brownfield,DPRA Site 13 - Parcel B,National City,CA,32.6618,-117.10984
Brownfield,DPRA Site 13 - Parcel C,National City,CA,32.6618,-117.10984
Brownfield,DPRA Site 13 - Parcel D,National City,CA,32.6618,-117.10984
Brownfield,DPRA Site 13 - Parcel E,National City,CA,32.6618,-117.10984
Brownfield,DPRA Site 2 - Parcel A,National City,CA,32.67442,-117.11412
Brownfield,DPRA Site 2 - Parcel C,National City,CA,32.67081,-117.11198
Brownfield,DPRA Site 2 - Parcel D,National City,CA,32.67081,-117.11412
Brownfield,DPRA Site 3,National City,CA,32.67081,-117.11412
Brownfield,DPRA Site 4 - Parcel A,National City,CA,32.66901,-117.11198
Brownfield,DPRA Site 4 - Parcel B,National City,CA,32.66901,-117.11198
Brownfield,DPRA Site 4 - Parcel C,National City,CA,32.66901,-117.11198
Brownfield,DPRA Site 4 - Parcel D,National City,CA,32.66901,-117.11198
Brownfield,DPRA Site 4 - Parcel E,National City,CA,32.66721,-117.11198
Brownfield,DPRA Site 4 - Parcel F,National City,CA,32.66901,-117.11411
Brownfield,DPRA Site 4 - Parcel H,National City,CA,32.66901,-117.11198
Brownfield,DPRA Site 4 - Parcel I,National City,CA,32.66901,-117.11198
Brownfield,DPRA Site 4 - Parcel J,National City,CA,32.66901,-117.11198
Brownfield,DPRA Site 4 - Parcel K,National City,CA,32.66901,-117.11198
Brownfield,DPRA Site 4 - Parcel L,National City,CA,32.66901,-117.11198
Brownfield,DPRA Site 4 - Parcel M,National City,CA,32.66901,-117.11411
Brownfield,DPRA Site 5 - Parcel A,National City,CA,32.66721,-117.11198
Brownfield,DPRA Site 5 - Parcel B,National City,CA,32.66901,-117.11198
Brownfield,DPRA Site 5 - Parcel C,National City,CA,32.66721,-117.11198
Brownfield,DPRA Site 5 - Parcel D,National City,CA,32.66721,-117.11198
Brownfield,DPRA Site 5 - Parcel E,National City,CA,32.66721,-117.11198
Brownfield,DPRA Site 5 - Parcel F,National City,CA,32.66721,-117.11198
Brownfield,DPRA Site 5 - Parcel G,National City,CA,32.6654,-117.11198
Brownfield,DPRA Site 6 - Parcel A,National City,CA,32.6654,-117.11198
Brownfield,DPRA Site 6 - Parcel B,National City,CA,32.66541,-117.10985
Brownfield,DPRA Site 6 - Parcel C,National City,CA,32.6654,-117.11198
Brownfield,DPRA Site 6 - Parcel D,National City,CA,32.6654,-117.11198
Brownfield,DPRA Site 6 - Parcel E,National City,CA,32.6654,-117.11198
Brownfield,DPRA Site 6 - Parcel F,National City,CA,32.6654,-117.11198
Brownfield,DPRA Site 7 - Parcel A,National City,CA,32.6654,-117.11198
Brownfield,DPRA Site 7 - Parcel B,National City,CA,32.6654,-117.11198
Brownfield,DPRA Site 9 - Parcel A,National City,CA,32.66541,-117.10985
Brownfield,DPRA Site 9 - Parcel B,National City,CA,32.6636,-117.10984
Brownfield,DPRA Site 9 - Parcel C,National City,CA,32.66541,-117.10985
Brownfield,DPRA Site 9 - Parcel D,National City,CA,32.6636,-117.10984
Brownfield,DPRA Site 9 - Parcel E,National City,CA,32.66541,-117.10985
Brownfield,DPRA Site 9 - Parcel F,National City,CA,32.66541,-117.10985
Brownfield,North Fork Mill,NORTH FORK,CA,37.314722,-119.766944
Brownfield,10800 Edes Avenue,Oakland,CA,37.73155,-122.17638
Brownfield,1800 San Pablo Avenue,Oakland,CA,37.80835,-122.27266
Brownfield,1810 San Pablo Avenue,Oakland,CA,37.80835,-122.27266
Brownfield,1818 San Pablo Avenue,Oakland,CA,37.80835,-122.27266
Brownfield,1830 San Pablo Avenue,Oakland,CA,37.80835,-122.27181
Brownfield,1840 San Pablo Avenue,Oakland,CA,37.80835,-122.27266
Brownfield,18th Street Parcel,Oakland,CA,37.80926,-122.27435
Brownfield,1901 Telegraph Avenue,Oakland,CA,37.80833,-122.26954
Brownfield,1911 Telegraph Avenue,Oakland,CA,37.80878,-122.26981
Brownfield,1920 San Pablo Avenue,Oakland,CA,37.81015,-122.2718
Brownfield,1954 San Pablo Avenue,Oakland,CA,37.8097,-122.27264
Brownfield,1960 San Pablo Avenue,Oakland,CA,37.8097,-122.27264
Brownfield,1972 San Pablo Avenue,Oakland,CA,37.81015,-122.27264
Brownfield,1975 Telegraph Avenue,Oakland,CA,37.80968,-122.26981
Brownfield,1998 San Pablo Avenue,Oakland,CA,37.81015,-122.27321
Brownfield,521 19th Street,Oakland,CA,37.81013,-122.26952
Brownfield,529 20th Street Parcel 039,Oakland,CA,37.81013,-122.26952
Brownfield,529 20th Street Parcel 040,Oakland,CA,37.81013,-122.26952
Brownfield,529 20th Street Parcel 041,Oakland,CA,37.81013,-122.26952
Brownfield,529 20th Street Parcel 042,Oakland,CA,37.81013,-122.26952
Brownfield,529 20th Street Parcel 043,Oakland,CA,37.81013,-122.26952
Brownfield,529 20th Street Parcel 044,Oakland,CA,37.81013,-122.26952
Brownfield,538 Wiliam Street Parcel 4,Oakland,CA,37.80923,-122.27038
Brownfield,538 William Street Parcel 003,Oakland,CA,37.80923,-122.27038
Brownfield,538 William Street Parcel 005,Oakland,CA,37.80923,-122.27038
Brownfield,538 William Street Parcel 006,Oakland,CA,37.80923,-122.27038
Brownfield,540 18th Street,Oakland,CA,37.80789,-122.27153
Brownfield,544 William Street,Oakland,CA,37.81013,-122.26952
Brownfield,550 18th Street,Oakland,CA,37.80789,-122.27153
Brownfield,550 William Street,Oakland,CA,37.81013,-122.26952
Brownfield,562 William Street Parcel 009,Oakland,CA,37.81015,-122.2718
Brownfield,562 William Street Parcel 010,Oakland,CA,37.81015,-122.2718
Brownfield,563 19th Street,Oakland,CA,37.80879,-122.27152
Brownfield,565 20th Street,Oakland,CA,37.81015,-122.2718
Brownfield,566 William Street,Oakland,CA,37.81015,-122.2718
Brownfield,568 18th Street,Oakland,CA,37.80835,-122.27266
Brownfield,570 William Street,Oakland,CA,37.81015,-122.2718
Brownfield,571 19th Street,Oakland,CA,37.81015,-122.2718
Brownfield,571 20th Street,Oakland,CA,37.81015,-122.2718
Brownfield,574 William Street,Oakland,CA,37.81015,-122.2718
Brownfield,584 William Street,Oakland,CA,37.81015,-122.2718
Brownfield,585 20th Street Parcel 034,Oakland,CA,37.81015,-122.2718
Brownfield,585 20th Street Parcel 035,Oakland,CA,37.81015,-122.2718
Brownfield,585 20th Street Parcel 036,Oakland,CA,37.81015,-122.2718
Brownfield,588 William Street,Oakland,CA,37.81015,-122.2718
Brownfield,592 William Street,Oakland,CA,37.81015,-122.2718
Brownfield,593 20th Street,Oakland,CA,37.81015,-122.2718
Brownfield,596 William Street,Oakland,CA,37.81015,-122.2718
Brownfield,597 20th Street Parcel 031,Oakland,CA,37.81015,-122.2718
Brownfield,597 20th Street Parcel 032,Oakland,CA,37.81015,-122.2718
Brownfield,602 William Street,Oakland,CA,37.81015,-122.2718
Brownfield,608 William Street,Oakland,CA,37.81015,-122.2718
Brownfield,609 20th Street,Oakland,CA,37.81016,-122.27407
Brownfield,610 William Street,Oakland,CA,37.81015,-122.2718
Brownfield,Coliseum Gardens EPA Site 1,Oakland,CA,37.75562,-122.19804
Brownfield,Edes Avenue,Oakland,CA,37.731,-122.174
Brownfield,Former Alita Brand Macaroni,Oakland,CA,37.75234,-122.18551
Brownfield,Fox Courts Site,Oakland,CA,37.808056,-122.271667
Brownfield,Lucky?s Auto Body Shop,Oakland,CA,37.828848,-122.26852
Brownfield,Proposed Aspire Charter School,Oakland,CA,37.758525,-122.1986
Brownfield,Bay Area Auto Sales,Oakley,CA,37.9743,-121.6959
Brownfield,Contra Costa Auto Salvage,Oakley,CA,38.0051,-121.7377
Brownfield,Cook's Battery,Oakley,CA,37.9742,-121.6886
Brownfield,Oakley One-Hour Cleaners,Oakley,CA,37.9974,-121.7118
Brownfield,PG&E Corp. Yard,Oakley,CA,38.0028,-121.7507
Brownfield,Tri-County Auto Recyclers,Oakley,CA,37.9718,-121.696
Brownfield,Wards Auto Service Center,Oakley,CA,37.9958,-121.707
Brownfield,Keystone Automotive,Olivehurst,CA,39.10293,-121.54861
Brownfield,Apn 519-202-014,Orick,CA,41.329964,-124.030425
Brownfield,Apn 520-021-001,Orick,CA,41.294219,-124.055394
Brownfield,Apn 520-021-002,Orick,CA,41.295492,-124.054683
Brownfield,The Martin Property,Petaluma,CA,38.23539,-122.62374
Brownfield,"317-090-46, -48,  -49",Poway,CA,32.957153,-117.05217
Brownfield,317-101-01,Poway,CA,32.956544,-117.047904
Brownfield,317-101-02,Poway,CA,32.956544,-117.047712
Brownfield,317-101-03,Poway,CA,32.956512,-117.047392
Brownfield,"317-101-04, -05",Poway,CA,32.956512,-117.047232
Brownfield,317-101-07,Poway,CA,32.956512,-117.04608
Brownfield,317-101-11,Poway,CA,32.956608,-117.044704
Brownfield,317-101-15,Poway,CA,32.956544,-117.043488
Brownfield,"317-101-16, -17",Poway,CA,32.956691,-117.040898
Brownfield,"317-101-31, -32, and -50",Poway,CA,32.956651,-117.045744
Brownfield,"317-101-40, -41, -42, and -43",Poway,CA,32.956654,-117.043055
Brownfield,317-130-31,Poway,CA,32.956544,-117.038144
Brownfield,317-130-32,Poway,CA,32.956572,-117.037365
Brownfield,317-130-34,Poway,CA,32.956544,-117.038272
Brownfield,317-130-41,Poway,CA,32.95648,-117.036224
Brownfield,317-130-47,Poway,CA,32.956516,-117.035713
Brownfield,317-130-52,Poway,CA,32.956608,-117.040672
Brownfield,"317-130-54, -55, and -65",Poway,CA,32.956576,-117.039712
Brownfield,317-130-56,Poway,CA,32.956459,-117.03396
Brownfield,317-130-57 and -61,Poway,CA,32.956416,-117.03312
Brownfield,317-130-63,Poway,CA,32.956608,-117.040544
Brownfield,317-130-64,Poway,CA,32.956608,-117.040064
Brownfield,317-151-40,Poway,CA,32.952978,-117.060708
Brownfield,"317-151-42, and -43",Poway,CA,32.952048,-117.061009
Brownfield,317-151-44,Poway,CA,32.951892,-117.055298
Brownfield,"317-151-47, -50, and -51",Poway,CA,32.951649,-117.062745
Brownfield,"317-151-59, and 316-120-16",Poway,CA,32.954054,-117.061105
Brownfield,317-151-60,Poway,CA,32.951658,-117.062704
Brownfield,317-153-08,Poway,CA,32.953102,-117.055992
Brownfield,"317-153-18, -19, -20, and -21",Poway,CA,32.95174,-117.064915
Brownfield,317-153-22,Poway,CA,32.951951,-117.063719
Brownfield,"317-153-24, -25,     -26, and -27",Poway,CA,32.951366,-117.067081
Brownfield,"317-190-15, -16, -17, -18, -20, -28, and -39",Poway,CA,32.956256,-117.033152
Brownfield,"317-190-21, and -45",Poway,CA,32.956256,-117.034592
Brownfield,"317-190-43, -44",Poway,CA,32.956288,-117.035616
Brownfield,317-460-08,Poway,CA,32.953508,-117.058519
Brownfield,317-460-09,Poway,CA,32.95331,-117.058781
Brownfield,317-472-02,Poway,CA,32.956384,-117.047616
Brownfield,317-472-04,Poway,CA,32.956305,-117.047313
Brownfield,317-472-06,Poway,CA,32.95593,-117.048121
Brownfield,317-472-15,Poway,CA,32.956199,-117.046854
Brownfield,317-472-19,Poway,CA,32.955046,-117.047503
Brownfield,317-472-20,Poway,CA,32.956352,-117.047552
Brownfield,317-472-24,Poway,CA,32.956001,-117.047796
Brownfield,317-472-25,Poway,CA,32.956368,-117.047529
Brownfield,317-472-26,Poway,CA,32.955051,-117.046841
Brownfield,"317-473-01, -02, -03",Poway,CA,32.9564,-117.045242
Brownfield,"317-473-04, -05",Poway,CA,32.956416,-117.044672
Brownfield,317-473-06,Poway,CA,32.956416,-117.044448
Brownfield,"317-473-09, -10, -11",Poway,CA,32.956407,-117.043791
Brownfield,"317-473-12, -16",Poway,CA,32.956389,-117.042377
Brownfield,317-473-13,Poway,CA,32.956432,-117.041442
Brownfield,317-473-19,Poway,CA,32.956457,-117.040943
Brownfield,317-490-02,Poway,CA,32.956218,-117.053967
Brownfield,"317-490-04, -06,     -07",Poway,CA,32.955216,-117.054049
Brownfield,317-490-08,Poway,CA,32.955745,-117.054812
Brownfield,317-490-14,Poway,CA,32.955039,-117.055993
Brownfield,"317-490-17, -31",Poway,CA,32.953331,-117.058253
Brownfield,317-490-41,Poway,CA,32.953559,-117.057974
Brownfield,317-490-42,Poway,CA,32.955712,-117.053986
Brownfield,317-490-47,Poway,CA,32.954838,-117.055337
Brownfield,317-490-48,Poway,CA,32.955229,-117.055668
Brownfield,317-490-49,Poway,CA,32.955481,-117.055314
Brownfield,317-490-51,Poway,CA,32.956255,-117.053715
Brownfield,317-490-54,Poway,CA,32.956334,-117.05325
Brownfield,317-490-55,Poway,CA,32.956559,-117.051858
Brownfield,317-490-57,Poway,CA,32.956462,-117.049906
Brownfield,317-490-61,Poway,CA,32.954264,-117.057014
Brownfield,317-490-62,Poway,CA,32.954551,-117.056681
Brownfield,317-490-65,Poway,CA,32.95549,-117.055787
Brownfield,"317-490-66, -73",Poway,CA,32.955951,-117.054935
Brownfield,317-490-68,Poway,CA,32.956495,-117.050399
Brownfield,317-490-69,Poway,CA,32.956538,-117.050979
Brownfield,317-490-71,Poway,CA,32.953789,-117.058127
Brownfield,317-490-72,Poway,CA,32.956429,-117.054022
Brownfield,317-490-74,Poway,CA,32.953827,-117.057613
Brownfield,317-490-75,Poway,CA,32.955225,-117.056239
Brownfield,"317-490-77, -78,    -79, -80, -81, -82,  -83",Poway,CA,32.954432,-117.057254
Brownfield,"317-540-13, -72",Poway,CA,32.952085,-117.061063
Brownfield,"317-540-15, -16",Poway,CA,32.95211,-117.060668
Brownfield,"317-540-17, -18",Poway,CA,32.952292,-117.06019
Brownfield,317-540-19,Poway,CA,32.952509,-117.059733
Brownfield,317-540-20,Poway,CA,32.952874,-117.059254
Brownfield,317-540-26,Poway,CA,32.951869,-117.060782
Brownfield,317-540-27,Poway,CA,32.951853,-117.061282
Brownfield,317-540-30,Poway,CA,32.951828,-117.061614
Brownfield,317-540-46,Poway,CA,32.952001,-117.062395
Brownfield,317-540-47,Poway,CA,32.952026,-117.061875
Brownfield,317-540-60,Poway,CA,32.952069,-117.061625
Brownfield,"317-540-61, -62",Poway,CA,32.951785,-117.06232
Brownfield,317-540-63,Poway,CA,32.95253,-117.059289
Brownfield,317-540-64,Poway,CA,32.952156,-117.059911
Brownfield,317-540-71,Poway,CA,32.950647,-117.058644
Brownfield,317-540-73,Poway,CA,32.952077,-117.061292
Brownfield,317-820-01,Poway,CA,32.956439,-117.040629
Brownfield,317-820-02,Poway,CA,32.956416,-117.039776
Brownfield,317-820-03,Poway,CA,32.956416,-117.039584
Brownfield,317-820-04,Poway,CA,32.956352,-117.037152
Brownfield,"317-820-05, -06,  -07, -08, and -09",Poway,CA,32.954802,-117.040505
Brownfield,323-190-18,Poway,CA,32.956768,-117.024224
Brownfield,"323-190-21, -22, and -66",Poway,CA,32.957152,-117.023936
Brownfield,323-190-58 and -64,Poway,CA,32.956569,-117.025301
Brownfield,323-190-65,Poway,CA,32.956512,-117.024896
Brownfield,323-190-68 and -69,Poway,CA,32.95632,-117.026304
Brownfield,323-190-75,Poway,CA,32.95632,-117.027744
Brownfield,323-201-06,Poway,CA,32.956476,-117.031485
Brownfield,323-201-16,Poway,CA,32.956501,-117.032044
Brownfield,323-201-22,Poway,CA,32.9565,-117.030651
Brownfield,323-203-20,Poway,CA,32.956509,-117.02976
Brownfield,323-261-02,Poway,CA,32.956256,-117.030592
Brownfield,323-261-03,Poway,CA,32.956256,-117.030464
Brownfield,323-261-29 and  -30,Poway,CA,32.956256,-117.032544
Brownfield,323-262-02,Poway,CA,32.95616,-117.028576
Brownfield,"323-262-03, -04",Poway,CA,32.956197,-117.028902
Brownfield,323-262-05,Poway,CA,32.956256,-117.02928
Brownfield,"323-262-06, and -07",Poway,CA,32.956256,-117.029344
Brownfield,323-262-08,Poway,CA,32.956256,-117.029984
Brownfield,323-262-37,Poway,CA,32.956177,-117.028055
Brownfield,323-270-16,Poway,CA,32.956128,-117.026208
Brownfield,323-270-17,Poway,CA,32.956064,-117.025696
Brownfield,"323-270-19, -20",Poway,CA,32.956544,-117.02464
Brownfield,323-270-22,Poway,CA,32.95627,-117.024401
Brownfield,323-270-44,Poway,CA,32.95616,-117.02768
Brownfield,323-270-45,Poway,CA,32.95616,-117.027552
Brownfield,323-270-46,Poway,CA,32.95616,-117.027328
Brownfield,323-270-51,Poway,CA,32.956192,-117.025184
Brownfield,323-300-01,Poway,CA,32.95632,-117.028448
Brownfield,323-300-34,Poway,CA,32.956361,-117.028631
Brownfield,Greyhound Bus Terminal,Redding,CA,40.58438,-122.3891
Brownfield,255 Wildwood Avenue,Rio Dell,CA,40.49603,-124.10336
Brownfield,541 Wildwood Avenue,Rio Dell,CA,40.49781,-124.10575
Brownfield,Dellarsina Body and Fender Shop,Rio Dell,CA,40.49781,-124.10575
Brownfield,2544 3rd Street,Riverside,CA,33.98362,-117.36269
Brownfield,2570 3rd Street,Riverside,CA,33.98362,-117.36269
Brownfield,2580 3rd Street,Riverside,CA,33.98362,-117.36269
Brownfield,2622 4th Street,Riverside,CA,33.98183,-117.36051
Brownfield,2991 4th Street,Riverside,CA,33.98182,-117.36268
Brownfield,2992 4th Street,Riverside,CA,33.98362,-117.36269
Brownfield,2992 5th Street,Riverside,CA,33.98182,-117.36268
Brownfield,2993 7th Street,Riverside,CA,33.98001,-117.36484
Brownfield,3008 4th Street,Riverside,CA,33.98362,-117.36269
Brownfield,3008 5th Street,Riverside,CA,33.98182,-117.36268
Brownfield,3008-3032 6th Street (RSIMC Parcel 021),Riverside,CA,33.98001,-117.36484
Brownfield,3008-3032 6th Street (RSIMC Parcel 022),Riverside,CA,33.98001,-117.36484
Brownfield,3069 4th Street,Riverside,CA,33.98362,-117.36485
Brownfield,3070 4th Street,Riverside,CA,33.98362,-117.36485
Brownfield,3460 Commerce Street,Riverside,CA,33.98362,-117.36485
Brownfield,3496 Commerce Street,Riverside,CA,33.98182,-117.36485
Brownfield,3596 Commerce Street,Riverside,CA,33.98182,-117.36485
Brownfield,3604 Commerce Street,Riverside,CA,33.98182,-117.36485
Brownfield,1610 17th Street,Sacramento,CA,38.57105,-121.487008
Brownfield,3420 East Country Club Lane,Sacramento,CA,38.6286,-121.3847
Brownfield,Alta Plating Inc.,Sacramento,CA,38.56782,-121.487661
Brownfield,CADA Warehouse - Capitol Lofts,Sacramento,CA,38.570556,-121.494444
Brownfield,Donner Field Property,Sacramento,CA,38.543837,-121.454203
Brownfield,Fremont Community Garden,Sacramento,CA,38.57145,-121.49135
Brownfield,Josephina Villalobos Trust Property,Sacramento,CA,38.51207,-121.467473
Brownfield,Ken's Buff & Plating,Sacramento,CA,38.566944,-121.48277
Brownfield,Mercury Cleaners,Sacramento,CA,38.572981,-121.487292
Brownfield,Nichols and Sons Auto Parts,Sacramento,CA,38.567864,-121.487855
Brownfield,S & L Business Services and Recording Studio,Sacramento,CA,38.568665,-121.487655
Brownfield,Sing Lee Sewing Thread Co.,Sacramento,CA,38.567873,-121.487894
Brownfield,Werner-Dieter Auto Repair,Sacramento,CA,38.568552,-121.487702
Brownfield,Devon Square,San Pablo,CA,37.97376,-122.35471
Brownfield,Giant Rd Affordable Hsg Dev (Giant Rd Family Apts),San Pablo,CA,37.97421,-122.35471
Brownfield,3-Acres Property,Signal Hill,CA,33.81172,-118.17418
Brownfield,4-Acre Property,Signal Hill,CA,33.80633,-118.17195
Brownfield,A&A Concrete (Existing Property),Signal Hill,CA,33.81174,-118.17148
Brownfield,A&A Concrete (Relocation Property),Signal Hill,CA,33.80714,-118.18168
Brownfield,Enviropur Property,Signal Hill,CA,33.80996,-118.1693
Brownfield,Las Brisas Phase II,Signal Hill,CA,33.80083,-118.18051
Brownfield,1141 West Capitol Avenue,West Sacramento,CA,38.58176,-121.52271
Brownfield,1165 W. Capitol Avenue,West Sacramento,CA,38.58132,-121.52328
Brownfield,1282 West Capitol Avenue,West Sacramento,CA,38.58134,-121.52501
Brownfield,1350-1380 West Capitol Avenue,West Sacramento,CA,38.5809,-121.52616
Brownfield,1417 West Capitol Avenue,West Sacramento,CA,38.58091,-121.52674
Brownfield,1425 Rockrose Road,West Sacramento,CA,38.58271,-121.5267
Brownfield,1490 Merkley Avenue,West Sacramento,CA,38.57912,-121.52735
Brownfield,1501 Rockrose Road,West Sacramento,CA,38.58273,-121.52785
Brownfield,1517 West Capitol Avenue,West Sacramento,CA,38.58047,-121.52789
Brownfield,1526 Merkley Avenue,West Sacramento,CA,38.57912,-121.52792
Brownfield,1700 Madrone Avenue,West Sacramento,CA,38.58186,-121.53074
Brownfield,1701 Merkley Avenue,West Sacramento,CA,38.57961,-121.53078
Brownfield,1701-1703 Madrone Avenue,West Sacramento,CA,38.58186,-121.53074
Brownfield,1706-1708 Madrone Avenue,West Sacramento,CA,38.58186,-121.53074
Brownfield,1707-1709 Madrone Avenue,West Sacramento,CA,38.58186,-121.53074
Brownfield,1709 Merkley Avenue,West Sacramento,CA,38.57961,-121.53078
Brownfield,1710-1712 Madrone Avenue,West Sacramento,CA,38.58186,-121.53074
Brownfield,1711-1713 Madrone Avenue,West Sacramento,CA,38.58186,-121.53074
Brownfield,1713 Merkley Avenue,West Sacramento,CA,38.57961,-121.53078
Brownfield,1714-1716 Madrone Avenue,West Sacramento,CA,38.58186,-121.53074
Brownfield,1715-1717 Madrone Avenue,West Sacramento,CA,38.58186,-121.53074
Brownfield,1718-1724 Madrone Avenue,West Sacramento,CA,38.58187,-121.53131
Brownfield,1719-1723 Madrone Avenue,West Sacramento,CA,38.58187,-121.53131
Brownfield,1721 Merkley Avenue,West Sacramento,CA,38.57961,-121.53078
Brownfield,1725 Merkley Avenue,West Sacramento,CA,38.57961,-121.53078
Brownfield,1729 Merkley Avenue,West Sacramento,CA,38.57962,-121.53136
Brownfield,1729-1731 Madrone Avenue,West Sacramento,CA,38.58187,-121.53131
Brownfield,1733 Merkley Avenue,West Sacramento,CA,38.57962,-121.53136
Brownfield,1736-1740 Madrone Avenue,West Sacramento,CA,38.58187,-121.53131
Brownfield,1736-1740 Madrone Avenue,West Sacramento,CA,38.58187,-121.53131
Brownfield,1737 Merkley Avenue,West Sacramento,CA,38.57962,-121.53136
Brownfield,1737-1747 Madrone Avenue,West Sacramento,CA,38.58187,-121.53131
Brownfield,1801 Merkley Avenue,West Sacramento,CA,38.57963,-121.5325
Brownfield,1801 West Capitol Avenue,West Sacramento,CA,38.58053,-121.53249
Brownfield,1802-1804 Madrone Avenue,West Sacramento,CA,38.58143,-121.53247
Brownfield,1803-1805 Madrone Avenue,West Sacramento,CA,38.58143,-121.53247
Brownfield,1805 Merkley Avenue,West Sacramento,CA,38.57963,-121.5325
Brownfield,1806-1808 Madrone Avenue,West Sacramento,CA,38.58143,-121.53247
Brownfield,1807-1809 Madrone Avenue,West Sacramento,CA,38.58143,-121.53247
Brownfield,1809 Merkley Avenue,West Sacramento,CA,38.57963,-121.5325
Brownfield,1810-1812 Madrone Avenue,West Sacramento,CA,38.58143,-121.53247
Brownfield,1811-1813 Madrone Avenue,West Sacramento,CA,38.58143,-121.53247
Brownfield,1811-1813 Merkley Avenue,West Sacramento,CA,38.57963,-121.5325
Brownfield,1812 Merkley Avenue,West Sacramento,CA,38.57963,-121.5325
Brownfield,1814-1816 Madrone Avenue,West Sacramento,CA,38.58144,-121.53304
Brownfield,1815-1817 Madrone Avenue,West Sacramento,CA,38.58144,-121.53304
Brownfield,1818-1820 Madrone Avenue,West Sacramento,CA,38.58144,-121.53304
Brownfield,1819 Merkley Avenue,West Sacramento,CA,38.57963,-121.5325
Brownfield,1819-1821 Madrone Avenue,West Sacramento,CA,38.58144,-121.53304
Brownfield,1822-1824 Madrone Avenue,West Sacramento,CA,38.58144,-121.53304
Brownfield,1823-1825 Madrone Avenue,West Sacramento,CA,38.58144,-121.53304
Brownfield,1825 Merkley Avenue,West Sacramento,CA,38.57918,-121.53252
Brownfield,1826-1828 Madrone Avenue,West Sacramento,CA,38.58144,-121.53304
Brownfield,1827-1829 Madrone Avenue,West Sacramento,CA,38.58144,-121.53304
Brownfield,1830-1832 Madrone Avenue,West Sacramento,CA,38.58144,-121.53304
Brownfield,1831-1833 Madrone Avenue,West Sacramento,CA,38.58144,-121.53304
Brownfield,1836 Madrone Avenue,West Sacramento,CA,38.58144,-121.53304
Brownfield,1837 Madrone Avenue,West Sacramento,CA,38.58144,-121.53304
Brownfield,1900 West Capitol Avenue,West Sacramento,CA,38.58055,-121.53421
Brownfield,1903 Merkley Avenue,West Sacramento,CA,38.5792,-121.53423
Brownfield,1907 Merkley Avenue,West Sacramento,CA,38.5792,-121.53423
Brownfield,1913 Merkley Avenue,West Sacramento,CA,38.5792,-121.53423
Brownfield,1917 Merkley Avenue,West Sacramento,CA,38.5792,-121.53423
Brownfield,1919 Merkley Avenue,West Sacramento,CA,38.5792,-121.53423
Brownfield,1920 West Capitol Avenue,West Sacramento,CA,38.58055,-121.53421
Brownfield,1923 Merkley Avenue,West Sacramento,CA,38.5792,-121.53423
Brownfield,1927 Merkley Avenue,West Sacramento,CA,38.5792,-121.53423
Brownfield,1929-2007 West Capitol Avenue,West Sacramento,CA,38.5801,-121.53422
Brownfield,2001 Merkley Avenue,West Sacramento,CA,38.57922,-121.53539
Brownfield,2005 Merkley Avenue,West Sacramento,CA,38.57922,-121.53539
Brownfield,2009 Merkley Avenue,West Sacramento,CA,38.57922,-121.53539
Brownfield,2009 West Capitol Avenue,West Sacramento,CA,38.58012,-121.53594
Brownfield,2013 Merkley Avenue,West Sacramento,CA,38.57922,-121.53539
Brownfield,2017 Merkley Avenue,West Sacramento,CA,38.57922,-121.53539
Brownfield,2017 West Capitol Avenue,West Sacramento,CA,38.58012,-121.53594
Brownfield,2021 Merkley Avenue,West Sacramento,CA,38.57922,-121.53596
Brownfield,2025 Merkley Avenue,West Sacramento,CA,38.57922,-121.53596
Brownfield,2029 Merkley Avenue,West Sacramento,CA,38.57922,-121.53596
Brownfield,205 2nd Street,West Sacramento,CA,38.58969,-121.50819
Brownfield,2103 West Capitol Avenue,West Sacramento,CA,38.58014,-121.53709
Brownfield,2241 West Capitol Avenue,West Sacramento,CA,38.57972,-121.53996
Brownfield,2257 West Capitol Avenue,West Sacramento,CA,38.57972,-121.53996
Brownfield,2400 West Capitol Avenue,West Sacramento,CA,38.57975,-121.54169
Brownfield,2410 West Capitol Avenue,West Sacramento,CA,38.57975,-121.54226
Brownfield,2430 West Capitol Avenue,West Sacramento,CA,38.57975,-121.54226
Brownfield,711 Cedar Street,West Sacramento,CA,38.58106,-121.53879
Brownfield,2600 West Capitol Avenue,West Sacramento,CA,38.57979,-121.54513
Brownfield,2727 West Capitol Avenue,West Sacramento,CA,38.57936,-121.54743
Brownfield,4101 West Capitol Avenue,West Sacramento,CA,38.5787,-121.56612
Brownfield,4201 West Capitol Avenue,West Sacramento,CA,38.5787,-121.56612
Brownfield,4203-4225 West Capitol Avenue,West Sacramento,CA,38.57874,-121.56841
Brownfield,422 - 424 C Street,West Sacramento,CA,38.58883,-121.5108
Brownfield,4235-4275 West Capitol Ave,West Sacramento,CA,38.57739,-121.56986
Brownfield,4505 West Capitol,West Sacramento,CA,38.5774,-121.57101
Brownfield,4601-4551 West Capitol Ave,West Sacramento,CA,38.57697,-121.57274
Brownfield,4680 West Capitol Avenue,West Sacramento,CA,38.57653,-121.57332
Brownfield,4756-4790 West Capitol Avenue,West Sacramento,CA,38.57653,-121.57332
Brownfield,600 Jefferson Boulevard,West Sacramento,CA,38.58316,-121.52612
Brownfield,604 Jefferson Boulevard,West Sacramento,CA,38.58316,-121.52612
Brownfield,615-619 Westacre Road,West Sacramento,CA,38.58231,-121.53073
Brownfield,617 Maple Street,West Sacramento,CA,38.58331,-121.53817
Brownfield,618-620 Westacre Road,West Sacramento,CA,38.58231,-121.53073
Brownfield,621 Maple Street,West Sacramento,CA,38.58331,-121.53817
Brownfield,623 Westacre Road,West Sacramento,CA,38.58231,-121.53073
Brownfield,640 Maple Street,West Sacramento,CA,38.58286,-121.53818
Brownfield,641 Maple Street,West Sacramento,CA,38.58286,-121.53818
Brownfield,644 Maple Street,West Sacramento,CA,38.58286,-121.53818
Brownfield,651 Maple Street,West Sacramento,CA,38.58286,-121.53818
Brownfield,660 Maple Street,West Sacramento,CA,38.58241,-121.53819
Brownfield,661-665 Maple Street,West Sacramento,CA,38.58241,-121.53819
Brownfield,665-667 Cedar Street,West Sacramento,CA,38.58151,-121.53878
Brownfield,700-702 Maple Street,West Sacramento,CA,38.58195,-121.5382
Brownfield,701 Cedar Street,West Sacramento,CA,38.58106,-121.53879
Brownfield,701 Glide Avenue,West Sacramento,CA,38.58158,-121.54452
Brownfield,701 Maple Street,West Sacramento,CA,38.58195,-121.5382
Brownfield,710 Maple Street,West Sacramento,CA,38.5815,-121.53821
Brownfield,711-715 Maple Street,West Sacramento,CA,38.5815,-121.53821
Brownfield,720 Maple Street,West Sacramento,CA,38.5815,-121.53821
Brownfield,721-725 Maple Street,West Sacramento,CA,38.5815,-121.53821
Brownfield,730 Maple Street,West Sacramento,CA,38.58105,-121.53822
Brownfield,731 Maple Street,West Sacramento,CA,38.58105,-121.53822
Brownfield,731 Pecan Street,West Sacramento,CA,38.5811,-121.54166
Brownfield,740 Maple Street,West Sacramento,CA,38.58105,-121.53822
Brownfield,741 Maple Street,West Sacramento,CA,38.58105,-121.53822
Brownfield,741 Pecan Street,West Sacramento,CA,38.5811,-121.54166
Brownfield,800 Merkley Avenue,West Sacramento,CA,38.58175,-121.52213
Brownfield,805 Poplar Avenue,West Sacramento,CA,38.57919,-121.53366
Brownfield,813 Walnut Street,West Sacramento,CA,38.57883,-121.54056
Brownfield,816 Westacre Road,West Sacramento,CA,38.57961,-121.53078
Brownfield,820 & 824 West Capitol Avenue,West Sacramento,CA,38.58351,-121.5178
Brownfield,820 West Capitol Avenue,West Sacramento,CA,38.5826,-121.5181
Brownfield,821-845 Jefferson Boulevard,West Sacramento,CA,38.58045,-121.52618
Brownfield,824 Poplar Avenue,West Sacramento,CA,38.57919,-121.53366
Brownfield,825 Poplar Avenue,West Sacramento,CA,38.57919,-121.53366
Brownfield,826 Westacre Road,West Sacramento,CA,38.57916,-121.53079
Brownfield,828 Merkley Avenue,West Sacramento,CA,38.5813,-121.52214
Brownfield,A & B Liquor,West Sacramento,CA,38.58019,-121.54111
Brownfield,Acme Dental Center,West Sacramento,CA,38.57961,-121.53078
Brownfield,Advanced Auto Center,West Sacramento,CA,38.57959,-121.52963
Brownfield,Ariana Food Market,West Sacramento,CA,38.58049,-121.52962
Brownfield,Audio Xpress,West Sacramento,CA,38.57955,-121.52619
Brownfield,Auto House/Capitol Cars,West Sacramento,CA,38.5801,-121.53422
Brownfield,Autozone/Former Redwood Oil Co.,West Sacramento,CA,38.58091,-121.52674
Brownfield,Bank of America,West Sacramento,CA,38.58047,-121.52789
Brownfield,Bel Air Motel,West Sacramento,CA,38.58095,-121.52961
Brownfield,Broadway Auto Service,West Sacramento,CA,38.58012,-121.53594
Brownfield,Budget Motel,West Sacramento,CA,38.58219,-121.52097
Brownfield,Caf?? Vienna/Pooja Grill Restaurants,West Sacramento,CA,38.58042,-121.52331
Brownfield,Capitol Bowl,West Sacramento,CA,38.58263,-121.51981
Brownfield,Capitol Plating,West Sacramento,CA,38.58883,-121.5108
Brownfield,Capitol Travel Inn,West Sacramento,CA,38.58262,-121.51924
Brownfield,Capitol West Mobile Home Park,West Sacramento,CA,38.58113,-121.54453
Brownfield,Carols Restaurant,West Sacramento,CA,38.58133,-121.52386
Brownfield,Casa Mobile Plaza 1,West Sacramento,CA,38.58175,-121.52213
Brownfield,Casa Mobile Plaza 2,West Sacramento,CA,38.58175,-121.52213
Brownfield,Center for Spiritual Awareness,West Sacramento,CA,38.58175,-121.52155
Brownfield,Childrens World/Daycare,West Sacramento,CA,38.58186,-121.53074
Brownfield,Cigarette Store/Jealousy Catering,West Sacramento,CA,38.57997,-121.52389
Brownfield,City of West Sacramento City Hall,West Sacramento,CA,38.58177,-121.52328
Brownfield,Clayton Homes,West Sacramento,CA,38.57978,-121.54456
Brownfield,Coldwell Banker/West Sac Press,West Sacramento,CA,38.58,-121.52618
Brownfield,Continental Inn,West Sacramento,CA,38.58092,-121.52731
Brownfield,Cousin Garys Mobile Home Sales,West Sacramento,CA,38.57979,-121.54513
Brownfield,Crest Motel,West Sacramento,CA,38.58219,-121.52097
Brownfield,D & D Mobile Home Sales,West Sacramento,CA,38.58015,-121.53823
Brownfield,DarPetro/USA Gasoline & Mini Mart,West Sacramento,CA,38.57975,-121.54226
Brownfield,Dharma Buddhist Temple,West Sacramento,CA,38.58175,-121.52155
Brownfield,Discount Cigarettes,West Sacramento,CA,38.58051,-121.53076
Brownfield,Dr. Souzas Furniture,West Sacramento,CA,38.57977,-121.54341
Brownfield,Echo Lodge,West Sacramento,CA,38.58053,-121.53249
Brownfield,Economy Inn,West Sacramento,CA,38.58133,-121.52444
Brownfield,El Rancho Cleaners/Market,West Sacramento,CA,38.57999,-121.52503
Brownfield,El Rancho Mobile Home Park,West Sacramento,CA,38.58057,-121.53593
Brownfield,El Tejon Motel,West Sacramento,CA,38.58053,-121.53249
Brownfield,Eskaton Wilson Manor Senior Living,West Sacramento,CA,38.57745,-121.53829
Brownfield,Flagstone Motel,West Sacramento,CA,38.58093,-121.52846
Brownfield,Flamingo Motel,West Sacramento,CA,38.58218,-121.5204
Brownfield,"Fleetwood Homes, 2700-30 W. Capitol",West Sacramento,CA,38.5798,-121.54628
Brownfield,"Fleetwood Homes, 2750 W. Capitol",West Sacramento,CA,38.57981,-121.54685
Brownfield,Flyers Shell Service Station 1,West Sacramento,CA,38.57982,-121.548
Brownfield,Flyers Shell Service Station 2,West Sacramento,CA,38.57982,-121.548
Brownfield,Former Burton Motors,West Sacramento,CA,38.5791,-121.5262
Brownfield,Former Country Maid Grocery,West Sacramento,CA,38.58181,-121.52672
Brownfield,Former Low Cost Liquor,West Sacramento,CA,38.57959,-121.52963
Brownfield,Former Ramos Oil Service Station,West Sacramento,CA,38.58175,-121.52213
Brownfield,Former Tower Court Properties,West Sacramento,CA,38.58214,-121.51695
Brownfield,Former Washtime Car Wash,West Sacramento,CA,38.57959,-121.52963
Brownfield,Fremont Motel,West Sacramento,CA,38.58093,-121.52846
Brownfield,Garden Acres Mobile Home Park,West Sacramento,CA,38.57972,-121.53939
Brownfield,Golden Days Adult Care Center,West Sacramento,CA,38.58042,-121.52331
Brownfield,Golden Motel,West Sacramento,CA,38.58055,-121.53421
Brownfield,Goodyear Tires,West Sacramento,CA,38.57936,-121.54686
Brownfield,"GPK Dismantlers, 2112 W. Capitol",West Sacramento,CA,38.58014,-121.53709
Brownfield,"GPK Dismantlers, 2116 W. Capitol",West Sacramento,CA,38.58014,-121.53709
Brownfield,H&R Block/Harveys Barber Shop,West Sacramento,CA,38.57955,-121.52619
Brownfield,Harbor Park Apartments,West Sacramento,CA,38.57856,-121.55464
Brownfield,Hefty Burgers,West Sacramento,CA,38.58049,-121.52962
Brownfield,Hollywood Hardware,West Sacramento,CA,38.57913,-121.5285
Brownfield,Jack Silveira Telephone Service,West Sacramento,CA,38.58019,-121.54111
Brownfield,Johnnies Sidewalk Pizza,West Sacramento,CA,38.57998,-121.52446
Brownfield,"Kasco Homes, 2331 W. Capitol Ave.",West Sacramento,CA,38.57974,-121.54111
Brownfield,"Kasco Homes, 2401 W. Capitol Ave.",West Sacramento,CA,38.57975,-121.54226
Brownfield,"Kasco Homes, 808-810 Pecan St.",West Sacramento,CA,38.5784,-121.54172
Brownfield,Kentucky Fried Chicken,West Sacramento,CA,38.58006,-121.53078
Brownfield,Khalsa Fabrics,West Sacramento,CA,38.58012,-121.53594
Brownfield,Kings Restaurant,West Sacramento,CA,38.58092,-121.52789
Brownfield,Kirbys Market/Maries Donuts,West Sacramento,CA,38.58017,-121.53996
Brownfield,La Cocina Taqueria,West Sacramento,CA,38.58271,-121.52613
Brownfield,Lake Washington Trailer Park,West Sacramento,CA,38.58107,-121.53994
Brownfield,Law Offices of Martinez & Kaminski,West Sacramento,CA,38.57912,-121.52792
Brownfield,Liberty Safe,West Sacramento,CA,38.58045,-121.52618
Brownfield,Mariscos Puerto Azul,West Sacramento,CA,38.58017,-121.53938
Brownfield,"McDonalds, 1700 W. Capitol Ave.",West Sacramento,CA,38.58051,-121.53076
Brownfield,"McDonalds, 2729 W. Capitol Ave.",West Sacramento,CA,38.57936,-121.54743
Brownfield,McDowell Manor Senior Living,West Sacramento,CA,38.57912,-121.52792
Brownfield,Metro PCS/Rite Aid/Big Lots,West Sacramento,CA,38.58134,-121.52501
Brownfield,"Mi Sueno Market, 2200 W. Capitol",West Sacramento,CA,38.58015,-121.53823
Brownfield,"Mi Sueno Market, 2204 W. Capitol",West Sacramento,CA,38.58015,-121.53823
Brownfield,"Mi Sueno Market, 2208 W. Capitol",West Sacramento,CA,38.58016,-121.53881
Brownfield,"Mobile Home Park, 720-740 Pecan St.",West Sacramento,CA,38.5811,-121.54166
Brownfield,"Mobile Home Park, 730 Pecan St.",West Sacramento,CA,38.5811,-121.54166
Brownfield,Mobile Home/Trailer Park,West Sacramento,CA,38.57975,-121.54169
Brownfield,"Mobile Homes, 2522 W. Capitol Ave.",West Sacramento,CA,38.57977,-121.54398
Brownfield,NAI/Sacramento Valley Commercial,West Sacramento,CA,38.57955,-121.52619
Brownfield,Old Town Inn,West Sacramento,CA,38.58261,-121.51867
Brownfield,Pacific Motel,West Sacramento,CA,38.58055,-121.53421
Brownfield,Penny???s Rod and Bait,West Sacramento,CA,38.57997,-121.52389
Brownfield,Pickwick Motel,West Sacramento,CA,38.58053,-121.53249
Brownfield,Plaza Motel,West Sacramento,CA,38.57936,-121.54686
Brownfield,Poplar Food and Liquor,West Sacramento,CA,38.58054,-121.53306
Brownfield,Quality Diesel,West Sacramento,CA,38.57751,-121.54346
Brownfield,Quick Stop Market #116,West Sacramento,CA,38.5805,-121.53019
Brownfield,Raleys key kiosk,West Sacramento,CA,38.58049,-121.52962
Brownfield,Raleys Superstore,West Sacramento,CA,38.58049,-121.52905
Brownfield,Ramco Enterprises/Vacant,West Sacramento,CA,38.58175,-121.52213
Brownfield,Ramos Triangle,West Sacramento,CA,38.58175,-121.52213
Brownfield,Redwood Motel/Vientiane Restaurant,West Sacramento,CA,38.57977,-121.54341
Brownfield,Reno Club,West Sacramento,CA,38.58019,-121.54111
Brownfield,Ricks Auto Sales,West Sacramento,CA,38.58055,-121.53421
Brownfield,Rippers Body Shop/Cheers Bar,West Sacramento,CA,38.57976,-121.54283
Brownfield,River City Dance/Help-U-Sell,West Sacramento,CA,38.57912,-121.52792
Brownfield,River Walk Property,West Sacramento,CA,38.58117,-121.51124
Brownfield,Rivercity Apostolic Church,West Sacramento,CA,38.58041,-121.52273
Brownfield,Rivers Edge Bar/Mobile Home Park,West Sacramento,CA,38.5797,-121.53825
Brownfield,Rosies Country Kitchen,West Sacramento,CA,38.58016,-121.53881
Brownfield,Sacramento Generator,West Sacramento,CA,38.58051,-121.53076
Brownfield,Sacramento Mission Church,West Sacramento,CA,38.57997,-121.52332
Brownfield,Sacramento Valley Tire and Auto Center,West Sacramento,CA,38.57955,-121.52619
Brownfield,Sahara Motel,West Sacramento,CA,38.58051,-121.53076
Brownfield,Schaffnot Manor Apartments,West Sacramento,CA,38.58286,-121.53818
Brownfield,Siesta Inn,West Sacramento,CA,38.58052,-121.53134
Brownfield,Sky Ranch Motel,West Sacramento,CA,38.58053,-121.53249
Brownfield,Stardust Motel,West Sacramento,CA,38.58092,-121.52731
Brownfield,Sunset Motel,West Sacramento,CA,38.57935,-121.54629
Brownfield,"Sunset Village, 1500-20 Madrone",West Sacramento,CA,38.58273,-121.52785
Brownfield,"Sunset Village, 1501-21 Madrone",West Sacramento,CA,38.58273,-121.52785
Brownfield,"Sunset Village, 1600-20 Madrone",West Sacramento,CA,38.58184,-121.52901
Brownfield,"Sunset Village, 1601-21 Madrone",West Sacramento,CA,38.58184,-121.52901
Brownfield,Terminal Muffler/Muffler Express,West Sacramento,CA,38.57975,-121.54226
Brownfield,The Dude Motel,West Sacramento,CA,38.58047,-121.52789
Brownfield,The Experience Motel,West Sacramento,CA,38.58261,-121.51867
Brownfield,The Rivers Water Tank & Pumping Station Property,West Sacramento,CA,38.60528,-121.52884
Brownfield,Tosco/BP Oil/Valero,West Sacramento,CA,38.58051,-121.53076
Brownfield,Townhouse Motel,West Sacramento,CA,38.58218,-121.5204
Brownfield,U-Haul of Sacramento,West Sacramento,CA,38.58052,-121.53134
Brownfield,United States Post Office,West Sacramento,CA,38.57914,-121.52907
Brownfield,US Bank,West Sacramento,CA,38.57955,-121.52619
Brownfield,"Vlads Toyota, 2620 & 2630 W. Capitol",West Sacramento,CA,38.5798,-121.5457
Brownfield,"Vlads Toyota, 746 Glide Avenue",West Sacramento,CA,38.58069,-121.54511
Brownfield,Walgreens,West Sacramento,CA,38.5809,-121.52616
Brownfield,Walgreens/Chevron,West Sacramento,CA,38.5809,-121.52616
Brownfield,Washington Firehouse,West Sacramento,CA,38.58883,-121.5108
Brownfield,"West Cap Courtyard, 2405 W. Capitol",West Sacramento,CA,38.57975,-121.54226
Brownfield,"West Cap Courtyard, 2455 W. Capitol",West Sacramento,CA,38.57977,-121.54341
Brownfield,West Capitol Barber,West Sacramento,CA,38.58093,-121.52846
Brownfield,West Capitol Car Wash,West Sacramento,CA,38.58017,-121.53938
Brownfield,West Sac Check Cashing/Coin Laundry,West Sacramento,CA,38.58271,-121.52613
Brownfield,West Sac Smog,West Sacramento,CA,38.58055,-121.53421
Brownfield,West Sacramento Library,West Sacramento,CA,38.58042,-121.52331
Brownfield,West Sacramento Teen Center,West Sacramento,CA,38.57913,-121.5285
Brownfield,West Wood Motel,West Sacramento,CA,38.58054,-121.53306
Brownfield,West Wood Motel/Silvey Motel,West Sacramento,CA,38.58175,-121.52213
Brownfield,Westside Community School,West Sacramento,CA,38.57954,-121.52505
Brownfield,Weyerhaeuser Property,West Sacramento,CA,38.57982,-121.51099
Brownfield,Yolo County Library,West Sacramento,CA,38.58133,-121.52444
Brownfield,427 C Street & 317 5th Street,West Sacremento,CA,38.58884,-121.51222
Brownfield,Apn 522-201-01,Willow Creek,CA,40.9425,-123.625556
Brownfield,Apn 522-491-16,Willow Creek,CA,40.9425,-123.625556
Brownfield,Paris Mill Property,Alma,CO,39.295999,-106.10823
Brownfield,Kingsborough Park (Idalia Court Landfill),Aurora,CO,39.687692,-104.806189
Brownfield,Sandoval,Aurora,CO,39.69567,-104.79589
Brownfield,Davidson,Colorado Springs,CO,38.74579,-104.73648
Brownfield,Peanut Mine,Crested Butte,CO,38.89972,-107.00474
Brownfield,Durango Power Plant,Durango,CO,37.278553,-107.8802
Brownfield,Golden 708 Property,Golden,CO,39.754906,-105.2205
Brownfield,La Junta Gas Station,La Junta,CO,37.98008,-103.54597
Brownfield,"Aggregate Industries, Louisville Plant",Louisville,CO,39.98094,-105.12854
Brownfield,Coal Creek Collision Center,Louisville,CO,39.985,-105.12796
Brownfield,Comcast Cablevision of Colorado,Louisville,CO,39.98184,-105.12971
Brownfield,Former Alpine Lumber Property,Louisville,CO,39.985,-105.12796
Brownfield,Louisville Tire and Auto Center,Louisville,CO,39.98365,-105.12796
Brownfield,Old Style Sausage and Louisville Store and Lock,Louisville,CO,39.9859,-105.12796
Brownfield,PDI Trust Property,Louisville,CO,39.98184,-105.12913
Brownfield,"Residence, 1055 Griffith Street",Louisville,CO,39.98364,-105.13088
Brownfield,Manzanola Train Station,Manzanola,CO,38.10976,-103.86504
Brownfield,Monte Vista Boys and Girls Club Property,Monte Vista,CO,37.58219,-106.15007
Brownfield,Buckshot Industries,Ordway,CO,38.214256,-103.75603
Brownfield,National Belle Mine,Ouray,CO,37.904879,-107.70466
Brownfield,Palisades Gas Station,Palisades,CO,39.11019,-108.35285
Brownfield,Former 5S Gas Station,Rangely,CO,40.08777,-108.80775
Brownfield,Former Galaxy Self-Serve Gas Station,Rangely,CO,40.0876,-108.79838
Brownfield,Towaoc Dining Hall,Towaoc,CO,37.201167,-108.730361
Brownfield,Colorado Brownfields Foundation,Trinidad,CO,37.17678,-104.50096
Brownfield,Africa,Unincorporated Ouray County,CO,37.964677,-107.727129
Brownfield,Agnes M.S.,Unincorporated Ouray County,CO,37.963254,-107.703068
Brownfield,Agnes No. 1,Unincorporated Ouray County,CO,37.972849,-107.781736
Brownfield,Agnes No. 2,Unincorporated Ouray County,CO,37.949537,-107.716407
Brownfield,Aguinaldo,Unincorporated Ouray County,CO,37.964252,-107.723569
Brownfield,Alden,Unincorporated Ouray County,CO,37.955667,-107.72246
Brownfield,Almondsbury,Unincorporated Ouray County,CO,37.985063,-107.79149
Brownfield,American Girl,Unincorporated Ouray County,CO,37.993804,-107.770763
Brownfield,American Girl M.S.,Unincorporated Ouray County,CO,37.988482,-107.766551
Brownfield,Annex,Unincorporated Ouray County,CO,37.977868,-107.782958
Brownfield,Apache,Unincorporated Ouray County,CO,37.942718,-107.7428
Brownfield,August Flower,Unincorporated Ouray County,CO,37.93645,-107.727214
Brownfield,B.F. Requa,Unincorporated Ouray County,CO,37.985121,-107.767762
Brownfield,B.O. Smith No. 1,Unincorporated Ouray County,CO,37.955605,-107.705212
Brownfield,B.O. Smith No. 2,Unincorporated Ouray County,CO,37.956451,-107.701018
Brownfield,Babcock No. 1,Unincorporated Ouray County,CO,37.962176,-107.717399
Brownfield,Badger,Unincorporated Ouray County,CO,37.98,-107.79
Brownfield,Balsam,Unincorporated Ouray County,CO,37.951429,-107.722606
Brownfield,Barnaby,Unincorporated Ouray County,CO,37.952952,-107.724609
Brownfield,Basuto,Unincorporated Ouray County,CO,37.943331,-107.734711
Brownfield,Bear,Unincorporated Ouray County,CO,37.985649,-107.79
Brownfield,Birds Eye,Unincorporated Ouray County,CO,37.951871,-107.746621
Brownfield,Black Quail,Unincorporated Ouray County,CO,37.966746,-107.719529
Brownfield,Blewsome,Unincorporated Ouray County,CO,37.952703,-107.706027
Brownfield,Blythe,Unincorporated Ouray County,CO,37.974829,-107.772829
Brownfield,Bodega,Unincorporated Ouray County,CO,37.956849,-107.737012
Brownfield,Boston,Unincorporated Ouray County,CO,37.995595,-107.775237
Brownfield,Boxer,Unincorporated Ouray County,CO,37.941153,-107.735079
Brownfield,Brooklyn,Unincorporated Ouray County,CO,37.98,-107.78
Brownfield,Bryant,Unincorporated Ouray County,CO,37.959597,-107.721637
Brownfield,Buckeye Girl,Unincorporated Ouray County,CO,37.95515,-107.73083
Brownfield,Cabanas,Unincorporated Ouray County,CO,37.947937,-107.744636
Brownfield,Camp Bird,Unincorporated Ouray County,CO,37.941918,-107.72149
Brownfield,Canuck,Unincorporated Ouray County,CO,37.94418,-107.740739
Brownfield,Cataract,Unincorporated Ouray County,CO,37.973027,-107.740382
Brownfield,Channel,Unincorporated Ouray County,CO,37.963079,-107.726157
Brownfield,Cherubusco,Unincorporated Ouray County,CO,37.981987,-107.788108
Brownfield,Chicago,Unincorporated Ouray County,CO,37.945707,-107.73682
Brownfield,Clipper No. 2,Unincorporated Ouray County,CO,37.978466,-107.776754
Brownfield,Clorinda,Unincorporated Ouray County,CO,37.972273,-107.74011
Brownfield,Cloudy Day,Unincorporated Ouray County,CO,37.987877,-107.686936
Brownfield,Columbine M.S.,Unincorporated Ouray County,CO,37.987036,-107.705937
Brownfield,Compass,Unincorporated Ouray County,CO,37.942219,-107.738122
Brownfield,Coney,Unincorporated Ouray County,CO,37.949082,-107.739811
Brownfield,Conqueror,Unincorporated Ouray County,CO,37.953217,-107.727284
Brownfield,Conqueror M.S.,Unincorporated Ouray County,CO,37.951387,-107.726567
Brownfield,Constance,Unincorporated Ouray County,CO,37.950412,-107.723642
Brownfield,Coronado,Unincorporated Ouray County,CO,37.932983,-107.732596
Brownfield,Cosmos,Unincorporated Ouray County,CO,37.943634,-107.737772
Brownfield,Courier,Unincorporated Ouray County,CO,37.946382,-107.743822
Brownfield,Cousin Jack,Unincorporated Ouray County,CO,37.951428,-107.732128
Brownfield,Cracker Jack,Unincorporated Ouray County,CO,37.939769,-107.729132
Brownfield,Croesus No. 5,Unincorporated Ouray County,CO,37.985308,-107.698784
Brownfield,Crusader,Unincorporated Ouray County,CO,37.947355,-107.724096
Brownfield,Daisy,Unincorporated Ouray County,CO,37.968575,-107.723112
Brownfield,Damon,Unincorporated Ouray County,CO,37.944808,-107.746154
Brownfield,Deadwood,Unincorporated Ouray County,CO,37.969637,-107.727358
Brownfield,Declaration,Unincorporated Ouray County,CO,37.952397,-107.720152
Brownfield,Declaration M.S.,Unincorporated Ouray County,CO,37.962782,-107.70405
Brownfield,Dipper,Unincorporated Ouray County,CO,37.955888,-107.710707
Brownfield,Dodo,Unincorporated Ouray County,CO,37.941285,-107.726587
Brownfield,Domingo,Unincorporated Ouray County,CO,37.957435,-107.729083
Brownfield,Domingo No. 2,Unincorporated Ouray County,CO,37.958864,-107.733965
Brownfield,Dread Not No. 2,Unincorporated Ouray County,CO,37.99,-107.77
Brownfield,Duchess,Unincorporated Ouray County,CO,37.959786,-107.717464
Brownfield,Early Day,Unincorporated Ouray County,CO,37.986907,-107.685356
Brownfield,Emily,Unincorporated Ouray County,CO,37.958695,-107.722483
Brownfield,Emily M.S.,Unincorporated Ouray County,CO,37.971545,-107.726567
Brownfield,Ensign,Unincorporated Ouray County,CO,37.958741,-107.717821
Brownfield,Entomologist,Unincorporated Ouray County,CO,37.958033,-107.714331
Brownfield,Equator,Unincorporated Ouray County,CO,37.95735,-107.717225
Brownfield,Equinox,Unincorporated Ouray County,CO,37.956398,-107.713632
Brownfield,Evangeline,Unincorporated Ouray County,CO,37.948645,-107.727807
Brownfield,Evangeline M.S.,Unincorporated Ouray County,CO,37.948932,-107.73075
Brownfield,Fargo,Unincorporated Ouray County,CO,37.969418,-107.778432
Brownfield,Fillipino,Unincorporated Ouray County,CO,37.937241,-107.724943
Brownfield,First National,Unincorporated Ouray County,CO,37.943612,-107.724082
Brownfield,Forest King,Unincorporated Ouray County,CO,37.981778,-107.69633
Brownfield,Forest Queen,Unincorporated Ouray County,CO,37.98183,-107.697172
Brownfield,Forward,Unincorporated Ouray County,CO,37.996544,-107.682772
Brownfield,Fox,Unincorporated Ouray County,CO,37.953948,-107.709546
Brownfield,Fox,Unincorporated Ouray County,CO,37.989316,-107.792361
Brownfield,Genessee,Unincorporated Ouray County,CO,37.99,-107.77
Brownfield,Georgia Belle,Unincorporated Ouray County,CO,37.980088,-107.707476
Brownfield,Georgia Belle Extension,Unincorporated Ouray County,CO,37.97655,-107.704728
Brownfield,Gertrude,Unincorporated Ouray County,CO,37.942002,-107.728001
Brownfield,Gertrude M.S.,Unincorporated Ouray County,CO,37.971139,-107.725073
Brownfield,Glen Monarch,Unincorporated Ouray County,CO,37.97031,-107.727168
Brownfield,Glen Monarch M.S.,Unincorporated Ouray County,CO,37.971877,-107.72861
Brownfield,Gold Coin,Unincorporated Ouray County,CO,37.935886,-107.725335
Brownfield,Gold Eagle,Unincorporated Ouray County,CO,37.991708,-107.683565
Brownfield,Gold Nugget Placer,Unincorporated Ouray County,CO,37.948428,-107.728148
Brownfield,Gold Thread,Unincorporated Ouray County,CO,38.008904,-107.72014
Brownfield,Good Luck Extension,Unincorporated Ouray County,CO,37.945681,-107.726773
Brownfield,Gore,Unincorporated Ouray County,CO,37.942488,-107.716376
Brownfield,Gray Eagle,Unincorporated Ouray County,CO,37.976302,-107.780272
Brownfield,Hagar,Unincorporated Ouray County,CO,37.95011,-107.725434
Brownfield,Halifax,Unincorporated Ouray County,CO,37.95945,-107.724337
Brownfield,Hancock,Unincorporated Ouray County,CO,37.942851,-107.726414
Brownfield,Heckla,Unincorporated Ouray County,CO,37.932621,-107.730183
Brownfield,Hellespont,Unincorporated Ouray County,CO,37.960993,-107.722279
Brownfield,Hendricks,Unincorporated Ouray County,CO,37.97561,-107.775872
Brownfield,Herbert,Unincorporated Ouray County,CO,37.990789,-107.766001
Brownfield,Herbert M.S.,Unincorporated Ouray County,CO,37.990329,-107.770154
Brownfield,Hester,Unincorporated Ouray County,CO,37.935434,-107.733988
Brownfield,High Ball,Unincorporated Ouray County,CO,37.936039,-107.723918
Brownfield,Honolulu,Unincorporated Ouray County,CO,37.932621,-107.730183
Brownfield,Humming Bird,Unincorporated Ouray County,CO,37.963421,-107.726484
Brownfield,Idaho,Unincorporated Ouray County,CO,37.97105,-107.722926
Brownfield,Ilda G.,Unincorporated Ouray County,CO,37.99,-107.77
Brownfield,Ilda G. Mill Site,Unincorporated Ouray County,CO,37.989343,-107.768882
Brownfield,Imogene,Unincorporated Ouray County,CO,37.952931,-107.734152
Brownfield,Iron Man,Unincorporated Ouray County,CO,37.952529,-107.702002
Brownfield,Ivanhoe,Unincorporated Ouray County,CO,37.942488,-107.716376
Brownfield,Jessie,Unincorporated Ouray County,CO,37.994211,-107.685644
Brownfield,Jicarilla,Unincorporated Ouray County,CO,37.942219,-107.738122
Brownfield,Juneau,Unincorporated Ouray County,CO,37.941609,-107.729974
Brownfield,Juneau No. 2,Unincorporated Ouray County,CO,37.941716,-107.733477
Brownfield,Keystone,Unincorporated Ouray County,CO,37.936824,-107.740246
Brownfield,King Edward,Unincorporated Ouray County,CO,37.940531,-107.72582
Brownfield,King Edward,Unincorporated Ouray County,CO,37.94361,-107.729167
Brownfield,Kokomo,Unincorporated Ouray County,CO,37.931599,-107.732307
Brownfield,Kootenai,Unincorporated Ouray County,CO,37.940718,-107.723133
Brownfield,Last Chance,Unincorporated Ouray County,CO,37.981854,-107.784254
Brownfield,Launaka,Unincorporated Ouray County,CO,37.968444,-107.728763
Brownfield,Launaka M.S.,Unincorporated Ouray County,CO,37.967382,-107.727647
Brownfield,Little Annie,Unincorporated Ouray County,CO,37.981193,-107.762818
Brownfield,Lizard,Unincorporated Ouray County,CO,37.960952,-107.766266
Brownfield,Luzon,Unincorporated Ouray County,CO,37.939151,-107.725964
Brownfield,Madison,Unincorporated Ouray County,CO,37.987652,-107.769291
Brownfield,Maggie D.,Unincorporated Ouray County,CO,37.981855,-107.784254
Brownfield,Manganese,Unincorporated Ouray County,CO,37.991708,-107.683565
Brownfield,Manilla,Unincorporated Ouray County,CO,37.962458,-107.72236
Brownfield,McKinley,Unincorporated Ouray County,CO,37.953225,-107.738031
Brownfield,201 Gold Property,Wilmington,DE,39.75056,-75.5375
Brownfield,Memoranda,Unincorporated Ouray County,CO,37.955893,-107.716761
Brownfield,Midnight,Unincorporated Ouray County,CO,37.969768,-107.722922
Brownfield,Miles,Unincorporated Ouray County,CO,37.965075,-107.721469
Brownfield,Modoc,Unincorporated Ouray County,CO,37.961447,-107.718332
Brownfield,Mojave,Unincorporated Ouray County,CO,37.943012,-107.737863
Brownfield,Moraine,Unincorporated Ouray County,CO,37.945716,-107.729628
Brownfield,Morning Star,Unincorporated Ouray County,CO,37.981352,-107.766545
Brownfield,Morning Star Mill Site,Unincorporated Ouray County,CO,37.97924,-107.762576
Brownfield,Moslem,Unincorporated Ouray County,CO,38.005552,-107.717649
Brownfield,Mount Sneffels Belle,Unincorporated Ouray County,CO,37.973725,-107.778176
Brownfield,Mountain Lion,Unincorporated Ouray County,CO,37.982015,-107.697997
Brownfield,Mountain Queen,Unincorporated Ouray County,CO,37.973522,-107.779872
Brownfield,Mountain Sheep,Unincorporated Ouray County,CO,37.978398,-107.695242
Brownfield,Mountain Top,Unincorporated Ouray County,CO,37.977933,-107.786356
Brownfield,Nada,Unincorporated Ouray County,CO,37.960472,-107.7672
Brownfield,Nelson,Unincorporated Ouray County,CO,37.971257,-107.737346
Brownfield,New Discovery,Unincorporated Ouray County,CO,37.971864,-107.736071
Brownfield,New Discovery,Unincorporated Ouray County,CO,37.976527,-107.783877
Brownfield,Nootka,Unincorporated Ouray County,CO,37.959345,-107.741097
Brownfield,Nootka M.S.,Unincorporated Ouray County,CO,37.961277,-107.741777
Brownfield,Norma,Unincorporated Ouray County,CO,37.950813,-107.729523
Brownfield,Norma M.S.,Unincorporated Ouray County,CO,37.957111,-107.723769
Brownfield,Nuada,Unincorporated Ouray County,CO,37.969739,-107.780147
Brownfield,Old Ireland,Unincorporated Ouray County,CO,37.944036,-107.733532
Brownfield,Old Trail,Unincorporated Ouray County,CO,37.975388,-107.774518
Brownfield,Olympia,Unincorporated Ouray County,CO,37.946117,-107.740231
Brownfield,Omega,Unincorporated Ouray County,CO,37.934454,-107.736058
Brownfield,Only One,Unincorporated Ouray County,CO,37.967521,-107.723237
Brownfield,Ores and Metals,Unincorporated Ouray County,CO,37.997628,-107.691835
Brownfield,Ores and Metals M.S.,Unincorporated Ouray County,CO,38.002125,-107.693187
Brownfield,Ores and Metals No. 1,Unincorporated Ouray County,CO,37.995026,-107.688135
Brownfield,Ores and Metals No. 2,Unincorporated Ouray County,CO,37.992207,-107.684644
Brownfield,Oro Cache,Unincorporated Ouray County,CO,37.944169,-107.737987
Brownfield,Otis,Unincorporated Ouray County,CO,37.964592,-107.722076
Brownfield,Otto,Unincorporated Ouray County,CO,37.99,-107.77
Brownfield,Palo Alto,Unincorporated Ouray County,CO,37.941433,-107.740151
Brownfield,Pine,Unincorporated Ouray County,CO,37.988174,-107.68792
Brownfield,Polar Bear,Unincorporated Ouray County,CO,37.968326,-107.719388
Brownfield,Priscilla,Unincorporated Ouray County,CO,37.955719,-107.720955
Brownfield,Pythias,Unincorporated Ouray County,CO,37.94418,-107.740739
Brownfield,R.A.P.,Unincorporated Ouray County,CO,37.99,-107.77
Brownfield,Ranchero,Unincorporated Ouray County,CO,37.949657,-107.746024
Brownfield,Randolph,Unincorporated Ouray County,CO,37.98228,-107.778085
Brownfield,Rebecca,Unincorporated Ouray County,CO,37.942708,-107.717758
Brownfield,Rene,Unincorporated Ouray County,CO,37.971899,-107.776489
Brownfield,Representative,Unincorporated Ouray County,CO,37.977044,-107.699845
Brownfield,Rigel,Unincorporated Ouray County,CO,37.944043,-107.736378
Brownfield,Rock Lake,Unincorporated Ouray County,CO,37.950723,-107.746358
Brownfield,Rudge,Unincorporated Ouray County,CO,37.953036,-107.722691
Brownfield,Saracen,Unincorporated Ouray County,CO,37.961498,-107.726679
Brownfield,Scorcher,Unincorporated Ouray County,CO,37.953888,-107.745557
Brownfield,Scorifier,Unincorporated Ouray County,CO,37.944651,-107.742552
Brownfield,Senator,Unincorporated Ouray County,CO,37.976811,-107.70069
