Name,Type,City,County,State,FAA Region,Site No.,Control Tower,Facility Use,Owner Type,Latitude,Longitude
KAALAIKI AIRSTRIP,AIRPORT,NAALEHU,HAWAII,HI,AWP,52462.2*A,N,PR,PR,19.1228244444,-155.5780502778
PAHALA AIRSTRIP,AIRPORT,PAHALA,HAWAII,HI,AWP,52500.*A,N,PR,PR,19.2161525000,-155.4686066667
UPPER PAAUAU,AIRPORT,PAHALA,HAWAII,HI,AWP,52500.1*A,N,PR,PR,19.2275400000,-155.5094394444
RAINSHED,HELIPORT,VOLCANO VILLAGE,HAWAII,HI,AWP,52584.*H,N,PR,PU,19.4330866667,-155.2597230556
MOUNTAIN VIEW AIRSTRIP,AIRPORT,MOUNTAIN VIEW,HAWAII,HI,AWP,52435.*A,N,PR,PR,19.5475261111,-155.1083383333
HILO MEDICAL CENTER,HELIPORT,HILO,HAWAII,HI,AWP,52095.01*H,N,PR,PR,19.7025169444,-155.1250083333
HILO INTL,AIRPORT,HILO,HAWAII,HI,AWP,52095.*A,Y,PU,PU,19.7202630000,-155.0484701389
KONA INTL AT KEAHOLE,AIRPORT,KAILUA/KONA,HAWAII,HI,AWP,52250.2*A,Y,PU,PU,19.7387658333,-156.0456313889
BRADSHAW ARMY AIRFIELD,AIRPORT,CAMP POHAKULOA,HAWAII,HI,AWP,52550.1*A,Y,PR,MR,19.7600133889,-155.5537661944
KAUPULEHU,HELIPORT,KAILUA/KONA,HAWAII,HI,AWP,52250.1*H,N,PR,PR,19.8325122222,-155.9816586111
LUCY HENRIQUES MEDICAL CENTER,HELIPORT,KAMUELA,HAWAII,HI,AWP,52276.1*H,N,PR,PR,19.8658386111,-155.6472233333
WAIKOLOA,HELIPORT,WAIKOLOA VILLAGE,HAWAII,HI,AWP,52589.1*H,N,PR,PR,19.9136163889,-155.8638838889
WAIMEA-KOHALA,AIRPORT,KAMUELA,HAWAII,HI,AWP,52276.*A,N,PU,PU,20.0013269444,-155.6681072222
UPPER PAAUILO AIRSTRIP,AIRPORT,PAAUILO,HAWAII,HI,AWP,52499.*A,N,PR,PR,20.0283283333,-155.3880569444
HONOKAA AIRSTRIP,AIRPORT,HONOKAA,HAWAII,HI,AWP,52149.*A,N,PR,PR,20.0836033333,-155.5022222222
UPOLU,AIRPORT,HAWI,HAWAII,HI,AWP,52090.*A,N,PU,PU,20.2651944444,-155.8599444444
LANAI,AIRPORT,LANAI CITY,MAUI,HI,AWP,52402.*A,N,PU,PU,20.7856111111,-156.9514180556
HANA,AIRPORT,HANA,MAUI,HI,AWP,52061.*A,N,PU,PU,20.7956371667,-156.0144378889
KAHULUI,AIRPORT,KAHULUI,MAUI,HI,AWP,52240.*A,Y,PU,PU,20.8986497222,-156.4304578611
HYATT REGENCY MAUI HOTEL,HELIPORT,LAHAINA,MAUI,HI,AWP,52390.1*H,N,PR,PR,20.9118272222,-156.6927383333
KAPALUA,AIRPORT,LAHAINA,MAUI,HI,AWP,52390.*A,N,PR,PU,20.9629363889,-156.6730316667
KAWELA FARM,HELIPORT,KAUNAKAKAI,MAUI,HI,AWP,52294.02*H,N,PR,PR,21.0827777778,-156.9736111111
BRANDT FIELD,AIRPORT,KAUNAKAKAI,MAUI,HI,AWP,52294.03*A,N,PR,PR,21.1370000000,-156.7344444444
PANDA,AIRPORT,KAUNAKAKAI,MAUI,HI,AWP,52294.01*A,N,PR,PR,21.1479316667,-157.2585725000
MOLOKAI,AIRPORT,KAUNAKAKAI,MAUI,HI,AWP,52294.*A,Y,PU,PU,21.1528858333,-157.0962561111
KALAUPAPA,AIRPORT,KALAUPAPA,KALAWAO,HI,AWP,52271.*A,N,PU,PU,21.2110402778,-156.9735972222
KALAELOA (JOHN RODGERS FIELD),AIRPORT,KAPOLEI,HONOLULU,HI,AWP,52282.*A,Y,PU,PU,21.3073538889,-158.0703016667
THE QUEEN'S MEDICAL CENTER,HELIPORT,HONOLULU,HONOLULU,HI,AWP,52161.41*H,N,PR,PR,21.3091686111,-157.8529797222
KUAKINI MEDICAL CENTER,HELIPORT,HONOLULU,HONOLULU,HI,AWP,52161.2*H,N,PR,PR,21.3135016667,-157.8472569444
HONOLULU INTL,AIRPORT,HONOLULU,HONOLULU,HI,AWP,52161.*A,Y,PU,PU,21.3186812778,-157.9224286667
K3 HELIPAD,HELIPORT,PEARL HARBOR,HONOLULU,HI,AWP,52514.*H,N,PR,MN,21.3620277778,-157.9507222222
MOANALUA MEDICAL CENTER,HELIPORT,HONOLULU,HONOLULU,HI,AWP,52161.42*H,N,PR,PR,21.3640555556,-157.8991988889
HECO-WAIAU,HELIPORT,HONOLULU,HONOLULU,HI,AWP,52161.1*H,N,PR,PR,21.3908333333,-157.9647222222
KANEOHE BAY MCAS (MARION E. CARL FIELD),AIRPORT,KANEOHE,HONOLULU,HI,AWP,52278.*A,Y,PR,MN,21.4504533333,-157.7680000000
WHEELER AAF,AIRPORT,WAHIAWA,HONOLULU,HI,AWP,52587.*A,Y,PR,MR,21.4847222222,-158.0397222222
KUALOA RANCH,HELIPORT,HONOLULU,HONOLULU,HI,AWP,52161.43*H,N,PR,PR,21.5218233333,-157.8389188889
KAENA POINT SATELLITE TRACKING STATION,HELIPORT,WAIANAE,HONOLULU,HI,AWP,52588.*H,N,PR,MA,21.5621222222,-158.2412888889
TAILWINDS,AIRPORT,JUPITER,MARTIN,FL,ASO,03258.75*A,N,PR,PR,26.9795000000,-80.2186566667
DILLINGHAM AIRFIELD,AIRPORT,MOKULEIA,HONOLULU,HI,AWP,52430.*A,N,PU,MR,21.5794736111,-158.1972813889
KAHUKU FIRE & POLICE STATION,HELIPORT,KAHUKU,HONOLULU,HI,AWP,52238.*H,N,PR,PU,21.6751513889,-157.9469694444
KAHUKU HOSPITAL,HELIPORT,KAHUKU,HONOLULU,HI,AWP,52238.01*H,N,PR,PR,21.6762627778,-157.9539141667
TURTLE BAY RESORT,HELIPORT,KAHUKU,HAWAII,HI,AWP,52238.02*H,N,PR,PR,21.7048700000,-158.0055791667
PORT ALLEN,AIRPORT,HANAPEPE,KAUAI,HI,AWP,52080.*A,N,PU,PU,21.8969444444,-159.6031666667
HAIKU AIRSTRIP,AIRPORT,PUHI,KAUAI,HI,AWP,52560.*A,N,PR,PR,21.9424213889,-159.4402605556
HI 23 AIRSTRIP,AIRPORT,PUHI,KAUAI,HI,AWP,52560.01*A,N,PR,PR,21.9657525000,-159.4272038889
LIHUE,AIRPORT,LIHUE,KAUAI,HI,AWP,52420.*A,Y,PU,PU,21.9759830278,-159.3389579722
BARKING SANDS PMRF,AIRPORT,"KEKAHA,KAUAI",KAUAI,HI,AWP,52302.1*A,Y,PR,MN,22.0227744444,-159.7850588889
HANAMAULU AIRSTRIP,AIRPORT,HANAMAULU,KAUAI,HI,AWP,52068.*A,N,PR,PR,22.0412783333,-159.3897027778
KALALAU BEACH,HELIPORT,HAENA,KAUAI,HI,AWP,52040.*H,N,PR,PU,22.1745966667,-159.6555350000
PRINCEVILLE,AIRPORT,HANALEI,KAUAI,HI,AWP,52066.3*A,N,PR,PR,22.2091900000,-159.4455338889
KEY WEST INTL,AIRPORT,KEY WEST,MONROE,FL,ASO,03263.*A,Y,PU,PU,24.5561111111,-81.7595555556
KEY WEST NAS /BOCA CHICA FIELD/,AIRPORT,KEY WEST,MONROE,FL,ASO,03264.*A,Y,PR,MN,24.5757013889,-81.6888333333
FLORIDA KEYS MEMORIAL HOSPITAL,HELIPORT,KEY WEST,MONROE,FL,ASO,03262.21*H,N,PR,PR,24.5837566667,-81.7442569444
SUGAR LOAF SHORES,AIRPORT,KEY WEST,MONROE,FL,ASO,03263.2*A,N,PR,PR,24.6487544444,-81.5798083333
SUMMERLAND KEY COVE,AIRPORT,SUMMERLAND KEY,MONROE,FL,ASO,03507.5*A,N,PR,PR,24.6587544444,-81.4414713889
FISHERMEN'S HOSPITAL EMERGENCY HELISTOP,HELIPORT,MARATHON,MONROE,FL,ASO,03314.03*H,N,PR,PR,24.7104191667,-81.0945177778
THE FLORIDA KEYS MARATHON,AIRPORT,MARATHON,MONROE,FL,ASO,03314.*A,N,PU,PU,24.7261944444,-81.0513611111
ADVENTURE ISLAND,HELIPORT,MARATHON,MONROE,FL,ASO,03314.02*H,N,PR,PR,24.7343069444,-81.0186827778
HOLIDAY ISLE,SEAPLANE BASE,ISLAMORADA,MONROE,FL,ASO,03249.5*C,N,PR,PR,24.9348544444,-80.6008952778
PLANTATION KEY,SEAPLANE BASE,MARATHON,MONROE,FL,ASO,03314.04*C,N,PR,PR,24.9712419444,-80.5956177778
MARINERS HOSPITAL,HELIPORT,TAVERNIER,MONROE,FL,ASO,03526.01*H,N,PR,PR,25.0045555556,-80.5247805556
TAVERNAERO PARK,AIRPORT,TAVERNIER,MONROE,FL,ASO,03526.*A,N,PR,PR,25.0087408333,-80.5331166667
OCEAN REEF CLUB,AIRPORT,KEY LARGO,MONROE,FL,ASO,03260.8*A,N,PR,PR,25.3253930556,-80.2747747222
MOTORSPORTS COMPLEX VIP,HELIPORT,HOMESTEAD,DADE,FL,ASO,03242.24*H,N,PR,PU,25.4486111111,-80.4100000000
MOTORSPORTS COMPLEX EMS,HELIPORT,HOMESTEAD,DADE,FL,ASO,03242.25*H,N,PR,PU,25.4536111111,-80.4113888889
HOMESTEAD ARB,AIRPORT,HOMESTEAD,DADE,FL,ASO,03242.*A,Y,PR,MA,25.4885500000,-80.3835666667
HOMESTEAD GENERAL AVIATION,AIRPORT,HOMESTEAD,DADE,FL,ASO,03242.1*A,N,PU,PU,25.4992306389,-80.5542445000
THE WRIGHT PLACE,AIRPORT,HOMESTEAD,DADE,FL,ASO,03242.26*A,N,PR,PR,25.5152527778,-80.5135000000
MAC'S FIELD,AIRPORT,HOMESTEAD,DADE,FL,ASO,03242.3*A,N,PR,PR,25.5464972222,-80.4656116667
MJD,AIRPORT,MIAMI,DADE,FL,ASO,03324.*A,N,PR,PR,25.5545527778,-80.5539472222
RICHARDS FIELD,AIRPORT,HOMESTEAD,DADE,FL,ASO,03242.8*A,N,PR,PR,25.5587191667,-80.5150572222
SOUTH DADE COMMUNITY HEALTH CENTER,HELIPORT,HOMESTEAD,DADE,FL,ASO,03242.23*H,N,PR,PU,25.5659402778,-80.3506088889
BURRS STRIP,AIRPORT,MIAMI,DADE,FL,ASO,03326.1*A,N,PR,PR,25.5701069444,-80.3997766667
B & L FARMS,AIRPORT,HOMESTEAD,DADE,FL,ASO,03243.2*A,N,PR,PR,25.5837180556,-80.4997791667
LINDBERGH'S LANDING,AIRPORT,MIAMI,DADE,FL,ASO,03325.15*A,N,PR,PR,25.6195277778,-80.4886666667
KENDALL-TAMIAMI EXECUTIVE,AIRPORT,MIAMI,DADE,FL,ASO,03325.1*A,Y,PU,PU,25.6478888889,-80.4327777778
BAPTIST HOSPITAL,HELIPORT,MIAMI,DADE,FL,ASO,03324.3*H,N,PR,PR,25.6670475000,-80.3331080556
KENDALL DISTRICT STATION,HELIPORT,MIAMI,DADE,FL,ASO,03326.16*H,N,PR,PU,25.6956580556,-80.3814425000
SOUTH BIMINI,AIRPORT,NORTH BIMINI,BAHAMAS,BS,,90733.*A,N,PU,PU,25.6999777778,-79.2651361111
MIAMI CHILDRENS HOSPITAL,HELIPORT,MIAMI,DADE,FL,ASO,03324.4*H,N,PR,PR,25.7458333333,-80.2947222222
FISHER ISLAND,HELIPORT,MIAMI,DADE,FL,ASO,03324.32*H,N,PR,PR,25.7641666667,-80.1386569444
FLORIDA POWER & LIGHT CO,HELIPORT,MIAMI,DADE,FL,ASO,03324.51*H,N,PR,PR,25.7670441667,-80.3497744444
MIAMI,SEAPLANE BASE,MIAMI,DADE,FL,ASO,03324.1*C,N,PU,PU,25.7783333333,-80.1702777778
DISTRICT VI,HELIPORT,MIAMI,DADE,FL,ASO,03324.33*H,N,PR,PR,25.7819805556,-80.3775222222
JACKSON MEMORIAL HOSPITAL,HELIPORT,MIAMI,DADE,FL,ASO,03330.3*H,N,PR,PU,25.7928750000,-80.2047694444
MIAMI INTL,AIRPORT,MIAMI,DADE,FL,ASO,03333.*A,Y,PU,PU,25.7953611111,-80.2901111111
MIAMI FEDERAL RESERVE BANK,HELIPORT,MIAMI,DADE,FL,ASO,03324.9*H,N,PR,PR,25.8075980556,-80.3419963889
DORAL RESORT & COUNTRY CLUB,HELIPORT,MIAMI,DADE,FL,ASO,03330.2*H,N,PR,PR,25.8128758333,-80.3389408333
MOUNT SINAI MEDICAL CENTER,HELIPORT,MIAMI BEACH,DADE,FL,ASO,03339.51*H,N,PR,PR,25.8144861111,-80.1412111111
OCEAN BEACH RESORT,HELIPORT,MIAMI BEACH,DADE,FL,ASO,03339.52*H,N,PR,PR,25.8256525000,-80.1211561111
DADE COUNTY MOSQUITO CONTROL,HELIPORT,MEDLEY,DADE,FL,ASO,03320.4*H,N,PR,PU,25.8273197222,-80.3422741667
KELLY TRACTOR CO,HELIPORT,MIAMI,DADE,FL,ASO,03326.15*H,N,PR,PR,25.8273197222,-80.3336627778
EVERGLADES AIRPARK,AIRPORT,EVERGLADES,COLLIER,FL,ASO,03182.*A,N,PU,PU,25.8488611111,-81.3902777778
WSVN TELEVISION CHANNEL 7,HELIPORT,MIAMI,DADE,FL,ASO,03324.6*H,N,PR,PR,25.8503738889,-80.1544905556
CENTRAL DISTRICT POLICE STATION,HELIPORT,HIALEAH,DADE,FL,ASO,03228.5*H,N,PR,PU,25.8531516667,-80.2469936111
OASIS RANGER STATION-U.S. GOVERNMENT,AIRPORT,EVERGLADES CITY,COLLIER,FL,ASO,03182.1*A,N,PR,PU,25.8573208333,-81.0345147222
DADE-COLLIER TRAINING AND TRANSITION,AIRPORT,MIAMI,DADE,FL,ASO,03326.*A,N,PU,PU,25.8618055556,-80.8970000000
PALMETTO GENERAL HOSPITAL,HELIPORT,HIALEAH,DADE,FL,ASO,03228.49*H,N,PR,PR,25.8856508333,-80.3264400000
BROWNSVILLE/SOUTH PADRE ISLAND INTL,AIRPORT,BROWNSVILLE,CAMERON,TX,ASW,23499.*A,Y,PU,PU,25.9068333333,-97.4258333333
OPA- LOCKA EXECUTIVE,AIRPORT,MIAMI,DADE,FL,ASO,03339.*A,Y,PU,PU,25.9074166667,-80.2782222222
INTRA COASTAL POLICE SUB-STATION,HELIPORT,NORTH MIAMI BEACH,DADE,FL,ASO,03389.13*H,N,PR,PU,25.9170380556,-80.1497680556
CAPELETTI,HELIPORT,HIALEAH,DADE,FL,ASO,03228.48*H,N,PR,PR,25.9253716667,-80.2997725000
RESACA AIRSTRIP,AIRPORT,BROWNSVILLE,CAMERON,TX,ASW,23499.01*A,N,PR,PR,25.9267469444,-97.4085913889
DOLPHIN STADIUM,HELIPORT,MIAMI,DADE,FL,ASO,03324.52*H,N,PR,PR,25.9598144444,-80.2369927778
AVENTURA,HELIPORT,NORTH MIAMI BEACH,DADE,FL,ASO,03388.94*H,N,PR,PR,25.9609252778,-80.1392119444
LOST HORN RANCH,AIRPORT,OCHOPEE,COLLIER,FL,ASO,03394.431*A,N,PR,PR,25.9681500000,-81.0814597222
COLUMBIA VALLEY RGNL,HELIPORT,BROWNSVILLE,CAMERON,TX,ASW,23500.*H,N,PR,PR,25.9775000000,-97.5158333333
ROMOR RANCH,AIRPORT,OCHOPEE,COLLIER,FL,ASO,03394.45*A,N,PR,PR,25.9809272222,-81.0567366667
NBC 6 (WTVJ),HELIPORT,MIRAMAR,BROWARD,FL,ASO,03356.*H,N,PR,PR,25.9863888889,-80.3538888889
MARCO ISLAND,AIRPORT,MARCO ISLAND,COLLIER,FL,ASO,03315.44*A,N,PU,PU,25.9950277778,-81.6725277778
NORTH PERRY,AIRPORT,HOLLYWOOD,BROWARD,FL,ASO,03236.*A,Y,PU,PU,26.0012222222,-80.2407222222
MEMORIAL HOSPITAL WEST HELISTOP,HELIPORT,PEMBROKE PINES,BROWARD,FL,ASO,03432.7*H,N,PR,PR,26.0142572222,-80.3114391667
MEMORIAL RGNL HOSPITAL,HELIPORT,HOLLYWOOD,BROWARD,FL,ASO,03236.02*H,N,PR,PR,26.0184233333,-80.1811575000
LITTLE DEER,AIRPORT,OCHOPEE,COLLIER,FL,ASO,03394.44*A,N,PR,PR,26.0309252778,-81.0386802778
MAC-IVOR & FRIENDS AIRSTRIP,AIRPORT,HOLLYWOOD,BROWARD,FL,ASO,03236.01*A,N,PR,PR,26.0448116667,-80.3733852778
CALUSA RANCH,AIRPORT,MILES CITY,COLLIER,FL,ASO,03349.1*A,N,PR,PR,26.0545355556,-81.0678477778
SOUTH PADRE ISLAND,HELIPORT,SOUTH PADRE ISLAND,CAMERON,TX,ASW,24828.01*H,N,PR,PU,26.0705555556,-97.1571527778
U S COAST GUARD STATION,HELIPORT,PORT ISABEL,CAMERON,TX,ASW,24537.01*H,N,PR,PU,26.0723002778,-97.1635825000
FORT LAUDERDALE/HOLLYWOOD INTL,AIRPORT,FORT LAUDERDALE,BROWARD,FL,ASO,03192.*A,Y,PU,PU,26.0725833333,-80.1527500000
GRANDE OAKS GOLF CLUB,HELIPORT,DAVIE,BROWARD,FL,ASO,03145.*H,N,PR,PR,26.0798111111,-80.2547694444
PROGRESO,AIRPORT,PROGRESO,HIDALGO,TX,ASW,24573.1*A,N,PR,PR,26.0836880556,-97.9502794444
CLEVELAND CLINIC FLORIDA HOSPITAL,HELIPORT,WESTON,BROWARD,FL,ASO,03553.4*H,N,PR,PR,26.0888888889,-80.3658333333
PORT EVERGLADES,HELIPORT,FORT LAUDERDALE,BROWARD,FL,ASO,03192.1*H,N,PR,PR,26.0961980556,-80.1136552778
PHYSICIANS RGNL MED CTR-COLLIER BLVD,HELIPORT,NAPLES,COLLIER,FL,ASO,03379.03*H,N,PR,PR,26.1019666667,-81.7357666667
BROWARD GENERAL MEDICAL CENTER,HELIPORT,FORT LAUDERDALE,BROWARD,FL,ASO,03192.11*H,N,PR,PU,26.1039755556,-80.1414341667
WING SOUTH AIRPARK,AIRPORT,NAPLES,COLLIER,FL,ASO,03378.21*A,N,PR,PR,26.1167583333,-81.7031413889
LOS OLAS CENTER,HELIPORT,FORT LAUDERDALE,BROWARD,FL,ASO,03194.2*H,N,PR,PR,26.1186972222,-80.1386555556
DOWNTOWN FORT LAUDERDALE,HELIPORT,FORT LAUDERDALE,BROWARD,FL,ASO,03193.*H,N,PU,PU,26.1204644444,-80.1420548611
DRENNAN FARM,AIRPORT,LOS FRESNOS,CAMERON,TX,ASW,24241.11*A,N,PR,PR,26.1211872222,-97.4280375000
CITY OF FORT LAUDERDALE,HELIPORT,FORT LAUDERDALE,BROWARD,FL,ASO,03192.13*H,N,PR,PU,26.1239750000,-80.1442116667
BSO PUBLIC SAFETY HELISTOP,HELIPORT,FORT LAUDERDALE,BROWARD,FL,ASO,03192.01*H,N,PR,PU,26.1245305556,-80.1792130556
THUNDERBIRD,HELIPORT,FORT LAUDERDALE,BROWARD,FL,ASO,03193.12*H,N,PR,PR,26.1370300000,-80.1908800000
SOUTHEASTERN HELICOPTERS,HELIPORT,SOUTH PADRE ISLAND,CAMERON,TX,ASW,24828.*H,N,PR,PR,26.1470211111,-97.1738608333
KORNEGAY PRIVATE,AIRPORT,SAN BENITO,CAMERON,TX,ASW,24716.1*A,N,PR,PR,26.1502777778,-97.5933333333
FLYING 'K' RANCH,ULTRALIGHT,MERCEDES,HIDALGO,TX,ASW,24344.*U,N,PR,PR,26.1503533333,-97.8836097222
NAPLES COMMUNITY HOSPITAL,HELIPORT,NAPLES,COLLIER,FL,ASO,03379.01*H,N,PR,PR,26.1514797222,-81.7970325000
NAPLES MUNI,AIRPORT,NAPLES,COLLIER,FL,ASO,03379.*A,Y,PU,PU,26.1522777778,-81.7758055556
KNAPP MEDICAL CENTER,HELIPORT,WESLACO,HIDALGO,TX,ASW,25001.1*H,N,PR,PR,26.1524722222,-97.9788055556
MID-VALLEY DUSTERS INC,AIRPORT,ALAMO,HIDALGO,TX,ASW,23295.2*A,N,PR,PR,26.1531308333,-98.1350083333
BROWARD COUNTY CIVIC ARENA,HELIPORT,SUNRISE,BROWARD,FL,ASO,03507.8*H,N,PR,PR,26.1594444444,-80.3255555556
PORT ISABEL-CAMERON COUNTY,AIRPORT,PORT ISABEL,CAMERON,TX,ASW,24537.*A,N,PU,PU,26.1661944444,-97.3458888889
SOUTH TEXAS EMERGENCY CARE FOUNDATION INC,HELIPORT,HARLINGEN,CAMERON,TX,ASW,24012.02*H,N,PR,PR,26.1680555556,-97.6525000000
SHOFNER FARMS,AIRPORT,HARLINGEN,CAMERON,TX,ASW,24012.1*A,N,PR,PR,26.1684088889,-97.7336038889
VALLEY BAPTIST MEDICAL CENTER,HELIPORT,HARLINGEN,CAMERON,TX,ASW,24012.03*H,N,PR,PR,26.1691666667,-97.6666666667
OLD REB,AIRPORT,MERCEDES,HIDALGO,TX,ASW,24344.1*A,N,PR,PR,26.1753527778,-97.8752761111
VALLEY BAPTIST MEDICAL CENTER (VBMC),HELIPORT,HARLINGEN,CAMERON,TX,ASW,24012.01*H,N,PR,PR,26.1753527778,-97.6705461111
MC ALLEN MILLER INTL,AIRPORT,MC ALLEN,HIDALGO,TX,ASW,24260.*A,Y,PU,PU,26.1758333333,-98.2386111111
MID VALLEY,AIRPORT,WESLACO,HIDALGO,TX,ASW,25001.*A,N,PU,PU,26.1776388889,-97.9730555556
FORT LAUDERDALE EXECUTIVE,AIRPORT,FORT LAUDERDALE,BROWARD,FL,ASO,03194.*A,Y,PU,PU,26.1972793611,-80.1707062778
MOORE AIRPARK,AIRPORT,PALMVIEW,HIDALGO,TX,ASW,24466.61*A,N,PR,PR,26.2125000000,-98.4080555556
VALLEY INTL,AIRPORT,HARLINGEN,CAMERON,TX,ASW,24012.*A,Y,PU,PU,26.2271111111,-97.6551388889
TEXAS AIR MUSEUM,AIRPORT,RIO HONDO,CAMERON,TX,ASW,24616.3*A,N,PR,PR,26.2286847222,-97.5608200000
PALMVIEW POLICE DEPT,HELIPORT,PALMVIEW,HIDALGO,TX,ASW,24466.6*H,N,PR,PR,26.2394527778,-98.3707222222
POMPANO BEACH AIRPARK,AIRPORT,POMPANO BEACH,BROWARD,FL,ASO,03451.*A,Y,PU,PU,26.2471388889,-80.1110555556
FARM SERVICES INC,AIRPORT,RIO HONDO,CAMERON,TX,ASW,24616.31*A,N,PR,PR,26.2489622222,-97.5649866667
RANCHO BUENA VISTA,AIRPORT,BAY VIEW,CAMERON,TX,ASW,23413.*A,N,PR,PR,26.2511852778,-97.3008100000
N BROWARD MEDICAL CENTER,HELIPORT,POMPANO BEACH,BROWARD,FL,ASO,03451.2*H,N,PR,PU,26.2784136111,-80.1219886111
SKALITSKY,AIRPORT,EDCOUCH,HIDALGO,TX,ASW,23799.2*A,N,PR,PR,26.2903494444,-97.9494458333
CANNON AVIATION,AIRPORT,EDCOUCH,HIDALGO,TX,ASW,23799.1*A,N,PR,PR,26.3086822222,-97.9544461111
HENDRY CORRECTIONAL INSTITUTION,AIRPORT,SUNNILAND,HENDRY,FL,ASO,03507.6*A,N,PR,PU,26.3098038889,-81.2272952778
BIG CYPRESS AIRFIELD,AIRPORT,IMMOKALEE,HENDRY,FL,ASO,03245.02*A,N,PR,PR,26.3202777778,-80.9877777778
WEST BOCA MEDICAL CENTER,HELIPORT,BOCA RATON,PALM BEACH,FL,ASO,03060.05*H,N,PR,PR,26.3555555556,-80.2002777778
NORMAN & WHITE,AIRPORT,EDINBURG,HIDALGO,TX,ASW,23805.2*A,N,PR,PR,26.3614577778,-98.1525094444
BOCA RATON,AIRPORT,BOCA RATON,PALM BEACH,FL,ASO,03060.*A,Y,PU,PU,26.3785000000,-80.1076944444
SOUTHERN RANCH,AIRPORT,CLEWISTON,HENDRY,FL,ASO,03117.21*A,N,PR,PR,26.3795230556,-80.9456211111
MOORE FIELD,AIRPORT,MISSION,HIDALGO,TX,ASW,24372.*A,N,PR,PU,26.3836786111,-98.3336266667
MC DANIEL RANCH INC.,AIRPORT,CLEWISTON,HENDRY,FL,ASO,03117.24*A,N,PR,PR,26.3938888889,-81.0230555556
A I M,HELIPORT,BOCA RATON,PALM BEACH,FL,ASO,03060.03*H,N,PR,PR,26.4156308333,-80.1914347222
TGP 409,HELIPORT,EDINBURG,HIDALGO,TX,ASW,23804.1*H,N,PR,PR,26.4167338889,-98.1369533333
RIO GRANDE CITY MUNI,AIRPORT,RIO GRANDE CITY,STARR,TX,ASW,24612.1*A,N,PU,PU,26.4242833333,-98.8460805556
HARDRIVES DELTA NR 3 HELISTOP,HELIPORT,DELRAY BEACH,PALM BEACH,FL,ASO,03156.513*H,N,PR,PR,26.4328000000,-80.0935500000
IMMOKALEE RGNL,AIRPORT,IMMOKALEE,COLLIER,FL,ASO,03245.*A,N,PU,PU,26.4338208056,-81.4013773056
DELRAY COMMUNITY HOSP EMERGENCY HELISTOP,HELIPORT,DELRAY BEACH,PALM BEACH,FL,ASO,03156.512*H,N,PR,PR,26.4356300000,-80.1269883333
SOUTH TEXAS INTL AT EDINBURG,AIRPORT,EDINBURG,HIDALGO,TX,ASW,23804.*A,N,PU,PU,26.4416666667,-98.1222222222
DEVILS GARDEN STRIP,AIRPORT,LA BELLE,HENDRY,FL,ASO,03270.21*A,N,PR,PR,26.4441666667,-81.0202777778
CORKSCREW TRACE AIRPARK,AIRPORT,ESTERO,LEE,FL,ASO,03178.7*A,N,PR,PR,26.4453566667,-81.6073030556
BELL AIRFIELD,AIRPORT,RAYMONDVILLE,WILLACY,TX,ASW,24598.2*A,N,PR,PR,26.4486794444,-97.7919400000
BOWMAN'S BEACH HELISTOP,HELIPORT,SANIBEL,LEE,FL,ASO,03481.3*H,N,PR,PU,26.4625802778,-82.1567611111
ANTIQUERS AERODROME,AIRPORT,DELRAY BEACH,PALM BEACH,FL,ASO,03156.51*A,N,PR,PR,26.4653513889,-80.1497666667
T.R. FUNK INC,AIRPORT,RAYMONDVILLE,WILLACY,TX,ASW,24598.21*A,N,PR,PR,26.4789566667,-97.6872133333
PINE RIDGE HELISTOP,HELIPORT,FORT MYERS,LEE,FL,ASO,03196.4*H,N,PR,PU,26.4903563889,-81.9334219444
BETHESDA MEMORIAL HOSPITAL,HELIPORT,BOYNTON BEACH,PALM BEACH,FL,ASO,03071.02*H,N,PR,PR,26.5043333333,-80.0702777778
ST JAMES HELISTOP,HELIPORT,CAPE CORAL,LEE,FL,ASO,03096.44*H,N,PR,PU,26.5114672222,-82.0884258333
HENDERSON,HELIPORT,BOKEELIA,LEE,FL,ASO,03061.51*H,N,PR,PR,26.5186894444,-82.1517605556
CHARLTON STRIP,AIRPORT,LA BELLE,HENDRY,FL,ASO,03270.17*A,N,PR,PR,26.5230555556,-81.4083333333
SOUTHWEST FLORIDA INTL,AIRPORT,FORT MYERS,LEE,FL,ASO,03198.2*A,Y,PU,PU,26.5361666667,-81.7551666667
CAPTIVA,HELIPORT,SANIBEL,LEE,FL,ASO,03481.31*H,N,PR,PU,26.5417441667,-82.1920388889
GULF COAST MEDICAL CENTER,HELIPORT,FORT MYERS,LEE,FL,ASO,03196.22*H,N,PR,PR,26.5440555556,-81.8488055556
GULF COAST HOSPITAL,HELIPORT,FORT MYERS,LEE,FL,ASO,03196.33*H,N,PR,PR,26.5441666667,-81.8500000000
WILLIS,GLIDERPORT,BOYNTON BEACH,PALM BEACH,FL,ASO,03071.01*G,N,PR,PR,26.5481261111,-80.2147683333
GRAND BAHAMA INTL,AIRPORT,FREEPORT,BAHAMAS,BS,,90715.*A,Y,PU,PU,26.5586861111,-78.6955527778
CHARLES R JOHNSON,AIRPORT,PORT MANSFIELD,WILLACY,TX,ASW,24543.*A,N,PU,PU,26.5628433333,-97.4377588889
DUDA AIRSTRIP,AIRPORT,LA BELLE,HENDRY,FL,ASO,03270.11*A,N,PR,PR,26.5797947222,-81.4836886111
OKEELANTA,AIRPORT,SOUTH BAY,PALM BEACH,FL,ASO,03505.01*A,N,PR,PR,26.5811813889,-80.7558933333
WOODSTOCK,AIRPORT,FORT MYERS,LEE,FL,ASO,03198.3*A,N,PR,PR,26.5825755556,-82.0984252778
PAGE FIELD,AIRPORT,FORT MYERS,LEE,FL,ASO,03198.*A,Y,PU,PU,26.5866111111,-81.8632500000
DUDA AIRSTRIP,AIRPORT,BELLE GLADE,PALM BEACH,FL,ASO,03055.11*A,N,PR,PR,26.5878475000,-80.6372791667
PALM BEACH COUNTY PARK,AIRPORT,WEST PALM BEACH,PALM BEACH,FL,ASO,03555.1*A,N,PU,PU,26.5930555556,-80.0850646111
JFK MEDICAL CENTER,HELIPORT,ATLANTIS,PALM BEACH,FL,ASO,03039.*H,N,PR,PR,26.5997222222,-80.0911111111
SALTY APPROACH,AIRPORT,FORT MYERS,LEE,FL,ASO,03196.2*A,N,PR,PR,26.6034086111,-82.2200947222
SOUTHWEST FLORIDA RGNL MEDICAL CENTER,HELIPORT,FORT MYERS,LEE,FL,ASO,03196.31*H,N,PR,PR,26.6053516667,-81.8595302778
PINE ISLAND HELISTOP,HELIPORT,PINE ISLAND CENTER,LEE,FL,ASO,03443.31*H,N,PR,PU,26.6067413889,-82.1109255556
PALM BEACH COMMUNITY COLLEGE,HELIPORT,LAKE WORTH,PALM BEACH,FL,ASO,03288.72*H,N,PR,PR,26.6107333333,-80.0876250000
LOXAHATCHEE,AIRPORT,LAKE WORTH,PALM BEACH,FL,ASO,03288.71*A,N,PR,PR,26.6225677778,-80.3053261111
NITV,HELIPORT,WELLINGTON,PALM BEACH,FL,ASO,03550.9*H,N,PR,PR,26.6339694444,-80.2242111111
SOUTHERN MACHINE & STEEL YARD,HELIPORT,FORT MYERS,LEE,FL,ASO,03196.32*H,N,PR,PR,26.6342391667,-81.8339738889
CALOOSA DOWNTOWN,SEAPLANE BASE,FORT MYERS,LEE,FL,ASO,03197.1*C,N,PR,PR,26.6350000000,-81.8750000000
WELLINGTON MEDICAL CENTER,HELIPORT,WEST PALM BEACH,PALM BEACH,FL,ASO,03555.14*H,N,PR,PR,26.6375675000,-80.2044900000
CAPE CORAL HOSPITAL,HELIPORT,CAPE CORAL,LEE,FL,ASO,03096.42*H,N,PR,PR,26.6384061111,-81.9414766667
LEE MEMORIAL HOSPITAL EMERGENCY,HELIPORT,FORT MYERS,LEE,FL,ASO,03196.3*H,N,PR,PU,26.6417388889,-81.8673080556
BUCKINGHAM FIELD,AIRPORT,FORT MYERS,LEE,FL,ASO,03199.*A,N,PR,PR,26.6434050000,-81.7103597222
TRANQUILITY BAY STRIP,AIRPORT,FORT MYERS,LEE,FL,ASO,03198.1*A,N,PR,PR,26.6434066667,-82.1178697222
WELLINGTON AERO CLUB,AIRPORT,WEST PALM BEACH,PALM BEACH,FL,ASO,03554.1*A,N,PR,PR,26.6464558333,-80.2942147222
WINK TV,HELIPORT,FORT MYERS,LEE,FL,ASO,03196.34*H,N,PR,PR,26.6508333333,-81.8555555556
PINE ISLAND,AIRPORT,FORT MYERS,LEE,FL,ASO,03197.*A,N,PR,PR,26.6561836111,-82.1212030556
STRAYHORN RANCH,AIRPORT,FORT MYERS,LEE,FL,ASO,03196.21*A,N,PR,PR,26.6628488889,-81.7706388889
BOKEELIA HELISTOP,HELIPORT,CAPE CORAL,LEE,FL,ASO,03096.43*H,N,PR,PU,26.6706277778,-82.1359255556
EAGLE'S LANDING,AIRPORT,FORT MYERS,LEE,FL,ASO,03196.*A,N,PR,PR,26.6772941667,-82.1364811111
PALMS WEST HOSPITAL HELISTOP,HELIPORT,LOXAHATCHEE,PALM BEACH,FL,ASO,03308.46*H,N,PR,PR,26.6805555556,-80.8405555556
PALM BEACH INTL,AIRPORT,WEST PALM BEACH,PALM BEACH,FL,ASO,03555.*A,Y,PU,PU,26.6831666667,-80.0955833333
RANGER,HELIPORT,WEST PALM BEACH,PALM BEACH,FL,ASO,03555.16*H,N,PR,PR,26.6836769444,-80.1872672222
BOB PAUL,AIRPORT,LA BELLE,HENDRY,FL,ASO,03270.3*A,N,PR,PR,26.6836794444,-81.4497986111
THE MURPHY COMPANY,HELIPORT,WEST PALM BEACH,PALM BEACH,FL,ASO,03555.2*H,N,PR,PR,26.6872877778,-80.0572636111
BELLE GLADE STATE MUNI,AIRPORT,BELLE GLADE,PALM BEACH,FL,ASO,03054.*A,N,PU,PU,26.6983055556,-80.6608055556
COTTON STRIP,AIRPORT,LA BELLE,HENDRY,FL,ASO,03270.4*A,N,PR,PR,26.7134011111,-81.5353558333
WPTV,HELIPORT,WEST PALM BEACH,PALM BEACH,FL,ASO,03555.23*H,N,PR,PR,26.7138888889,-80.0641666667
WEST PALM BEACH POLICE STATION,HELIPORT,WEST PALM BEACH,PALM BEACH,FL,ASO,03555.22*H,N,PR,PR,26.7139916667,-80.0578416667
PALM BEACH COUNTY JUDICIAL CENTER,HELIPORT,WEST PALM BEACH,PALM BEACH,FL,ASO,03555.21*H,N,PR,PR,26.7147861111,-80.0539277778
DIAMOND O RANCH,AIRPORT,SANTA ELENA,STARR,TX,ASW,24742.1*A,N,PR,PR,26.7170000000,-98.5586305556
PALM BEACH SHERIFF'S RANGE,HELIPORT,WEST PALM BEACH,PALM BEACH,FL,ASO,03555.19*H,N,PR,PU,26.7170091667,-80.1997675000
LAKESIDE MEDICAL CENTER,HELIPORT,BELLE GLADE,PALM BEACH,FL,ASO,03055.14*H,N,PR,PR,26.7237111111,-80.6719472222
HARPER'S FLY-IN RANCH,AIRPORT,CLEWISTON,HENDRY,FL,ASO,03117.23*A,N,PR,PR,26.7305555556,-81.1638888889
PINE SHADOWS AIRPARK,AIRPORT,FORT MYERS,LEE,FL,ASO,03198.4*A,N,PR,PR,26.7328463889,-81.8973083333
AIRGLADES,AIRPORT,CLEWISTON,HENDRY,FL,ASO,03118.*A,N,PU,PU,26.7351666667,-81.0510555556
WILLIAM'S SKY MANOR,AIRPORT,LA BELLE,HENDRY,FL,ASO,03270.12*A,N,PR,PR,26.7389552778,-81.5061883333
LA BELLE MUNI,AIRPORT,LA BELLE,HENDRY,FL,ASO,03270.1*A,N,PU,PU,26.7405833333,-81.4282777778
BOCA GRANDE HELISTOP,HELIPORT,BOCA GRANDE,LEE,FL,ASO,03059.*H,N,PR,PU,26.7422919444,-82.2587055556
HENDRY COUNTY FIRE-EMS,HELIPORT,LA BELLE,HENDRY,FL,ASO,03270.18*H,N,PR,PR,26.7463888889,-81.4286111111
RYBOVICH,HELIPORT,WEST PALM BEACH,PALM BEACH,FL,ASO,03555.15*H,N,PR,PR,26.7492300000,-80.0492075000
ST MARYS HOSPITAL,HELIPORT,WEST PALM BEACH,PALM BEACH,FL,ASO,03555.13*H,N,PR,PR,26.7566666667,-80.0611111111
FREEDOM WPEC INC,HELIPORT,MANGONIA PARK,PALM BEACH,FL,ASO,03313.3*H,N,PR,PR,26.7614519444,-80.0705972222
SOUTH POINT,AIRPORT,LA BELLE,HENDRY,FL,ASO,03270.16*A,N,PR,PR,26.7683333333,-81.5388888889
PALM BEACH CO GLADES,AIRPORT,PAHOKEE,PALM BEACH,FL,ASO,03419.1*A,N,PU,PU,26.7850277778,-80.6933611111
SUNDANCE FARMS,AIRPORT,LA BELLE,GLADES,FL,ASO,03270.13*A,N,PR,PR,26.8003419444,-81.4850766667
SAN RAFAEL RANCH,AIRPORT,SANTA ELENA,JIM HOGG,TX,ASW,24742.11*A,N,PR,PR,26.8151944444,-98.4792777778
PALM BEACH GARDENS MEDICAL CENTER,HELIPORT,PALM BEACH GARDENS,PALM BEACH,FL,ASO,03422.54*H,N,PR,PR,26.8293055556,-80.0856666667
HILLIARD'S PRIVATE,AIRPORT,MOORE HAVEN,GLADES,FL,ASO,03359.1*A,N,PR,PR,26.8325616667,-81.0800675000
PGA NATIONAL,HELIPORT,PALM BEACH GARDENS,PALM BEACH,FL,ASO,03422.52*H,N,PR,PR,26.8328386111,-80.1433769444
GRAHAM LANDING STRIP - MOORE HAVEN,AIRPORT,MOORE HAVEN,GLADES,FL,ASO,03359.01*A,N,PR,PR,26.8408950000,-81.1517358333
NORTH PALM BEACH COUNTY GENERAL AVIATION,AIRPORT,WEST PALM BEACH,PALM BEACH,FL,ASO,03554.2*A,N,PU,PU,26.8459166667,-80.2223333333
BURNT STORE ROAD,HELIPORT,PUNTA GORDA,CHARLOTTE,FL,ASO,03455.23*H,N,PR,PR,26.8466305556,-82.0222277778
CORAL CREEK,AIRPORT,PLACIDA,CHARLOTTE,FL,ASO,03443.4*A,N,PR,PR,26.8545097222,-82.2512047222
BRADY,HELIPORT,JUNA BEACH,PALM BEACH,FL,ASO,03258.69*H,N,PR,PR,26.8558333333,-80.0747222222
EL COYOTE RANCH,AIRPORT,ENCINO,BROOKS,TX,ASW,23833.6*A,N,PR,PR,26.8582766667,-98.2217490000
FLORIDA POWER & LIGHT-JUNO BEACH,HELIPORT,JUNO BEACH,PALM BEACH,FL,ASO,03258.68*H,N,PR,PR,26.8595047222,-80.0572633333
ROTUNDA,HELIPORT,PLACIDA,CHARLOTTE,FL,ASO,03443.5*H,N,PR,PR,26.8958333333,-82.2416666667
WILLIAM P GWINN,AIRPORT,JUPITER,PALM BEACH,FL,ASO,03258.721*A,Y,PR,PR,26.9081530556,-80.3284140278
BR RANCH,AIRPORT,JUPITER,PALM BEACH,FL,ASO,03258.74*A,N,PR,PR,26.9142247222,-80.2053230556
FLYING H,HELIPORT,JUPITER,PALM BEACH,FL,ASO,03258.731*H,N,PR,PR,26.9172800000,-80.1997672222
PUNTA GORDA,AIRPORT,PUNTA GORDA,CHARLOTTE,FL,ASO,03455.*A,Y,PU,PU,26.9189376667,-81.9909258056
JUPITER MEDICAL CENTER,HELIPORT,JUPITER,PALM BEACH,FL,ASO,03258.73*H,N,PR,PR,26.9255555556,-80.0961111111
ARMSTRONG RANCH,AIRPORT,ARMSTRONG,KENEDY,TX,ASW,23354.7*A,N,PR,PR,26.9339436111,-97.7624941667
PAYSON RANCH,AIRPORT,PUNTA GORDA,CHARLOTTE,FL,ASO,03455.2*A,N,PR,PR,26.9372811111,-81.5670222222
LYKES PALMDALE,AIRPORT,PALMDALE,GLADES,FL,ASO,03423.5*A,N,PR,PR,26.9478355556,-81.3186836111
SHELL CREEK AIRPARK,AIRPORT,PUNTA GORDA,CHARLOTTE,FL,ASO,03455.1*A,N,PU,PR,26.9686111111,-81.9163055556
ZAPATA COUNTY,AIRPORT,ZAPATA,ZAPATA,TX,ASW,25083.*A,N,PU,PU,26.9687861111,-99.2489083333
ATC,HELIPORT,JUPITER,PALM BEACH,FL,ASO,03258.77*H,N,PR,PR,26.9886672222,-80.0928197222
BUCHAN,AIRPORT,ENGLEWOOD,SARASOTA,FL,ASO,03178.5*A,N,PU,PU,26.9900805556,-82.3740177778
ST. JOSEPH HOSPITAL,HELIPORT,PORT CHARLOTTE,CHARLOTTE,FL,ASO,03451.81*H,N,PR,PR,26.9908922222,-82.0950891667
LAST CHANCE RANCH,AIRPORT,LAKE PLACID,GLADES,FL,ASO,03285.14*A,N,PR,PR,27.0217219444,-81.4511863889
INDIANTOWN,AIRPORT,INDIANTOWN,MARTIN,FL,ASO,03248.*A,N,PU,PR,27.0375000000,-80.4410000000
LAKE SUZY ESTATES,AIRPORT,PORT CHARLOTTE,DE SOTO,FL,ASO,03451.8*A,N,PR,PR,27.0425566667,-82.0436988889
NORTH PORT EMS,HELIPORT,NORTH PORT,SARASOTA,FL,ASO,03390.*H,N,PR,PU,27.0460527778,-82.2362944444
HENNESSY,AIRPORT,ARCADIA,DE SOTO,FL,ASO,03030.11*A,N,PR,PR,27.0511666667,-81.8481388889
SUNNYBREEZE,AIRPORT,ARCADIA,DE SOTO,FL,ASO,03030.02*A,N,PR,PR,27.0555555556,-81.9705555556
VENICE MUNI,AIRPORT,VENICE,SARASOTA,FL,ASO,03538.*A,N,PU,PU,27.0716111111,-82.4403333333
ZACHRY RANCH,AIRPORT,ESCOBAS,JIM HOGG,TX,ASW,23839.*A,N,PR,PR,27.0725405556,-98.9386402778
NORTH PORT FIRE RESCUE STATION 81,HELIPORT,NORTH PORT,SARASOTA,FL,ASO,03390.01*H,N,PR,PR,27.0744166667,-82.2080555556
MONTGOMERY RANCH,AIRPORT,ARCADIA,DE SOTO,FL,ASO,03030.14*A,N,PR,PR,27.0744983333,-81.5864666667
PUESTA DEL SOL,AIRPORT,HEBBRONVILLE,JIM HOGG,TX,ASW,24030.122*A,N,PR,PR,27.0756008333,-98.6016850000
J. H. HENDRIE FARMS,AIRPORT,LAKE PLACID,HIGHLANDS,FL,ASO,03285.2*A,N,PR,PR,27.0844969444,-81.3286833333
HORSESHOE ACRES AIRPARK,AIRPORT,INDIANTOWN,MARTIN,FL,ASO,03247.92*A,N,PR,PR,27.0933333333,-80.6122222222
TROPICAL PLANTATION,AIRPORT,PALM CITY,MARTIN,FL,ASO,03423.*A,N,PR,PR,27.1028288889,-80.2933813889
CAGE RANCH,AIRPORT,FALFURRIAS,BROOKS,TX,ASW,23850.1*A,N,PR,PR,27.1058788889,-98.2058397222
CORRALITOS,AIRPORT,SAN YGNACIO,ZAPATA,TX,ASW,24745.*A,N,PR,PR,27.1114186111,-99.4225400000
BRADY RANCH,AIRPORT,INDIANTOWN,MARTIN,FL,ASO,03247.91*A,N,PR,PR,27.1133836111,-80.6333894444
CARLSTROM FIELD,AIRPORT,ARCADIA,DE SOTO,FL,ASO,03030.18*A,N,PR,PR,27.1206083333,-81.8498055556
NAKED LADY RANCH,AIRPORT,STUART,MARTIN,FL,ASO,03507.2*A,N,PR,PR,27.1428275000,-80.3378272222
BAGGETT AIRPARK,AIRPORT,OKEECHOBEE,OKEECHOBEE,FL,ASO,03396.13*A,N,PR,PR,27.1555555556,-80.6916666667
BLUE HEAD RANCH,AIRPORT,LAKE PLACID,HIGHLANDS,FL,ASO,03285.1*A,N,PR,PR,27.1625502778,-81.5428544444
SAILFISH POINT,HELIPORT,SEWALL'S POINT,MARTIN,FL,ASO,03494.9*H,N,PR,PR,27.1697713889,-80.1567111111
WITHAM FIELD,AIRPORT,STUART,MARTIN,FL,ASO,03507.*A,Y,PU,PU,27.1816995556,-80.2212939722
KINGS PORT,AIRPORT,LAKE PLACID,HIGHLANDS,FL,ASO,03285.*A,N,PR,PR,27.1828266667,-81.3906288889
LYKES BRIGHTON,AIRPORT,OKEECHOBEE,GLADES,FL,ASO,03396.03*A,N,PR,PR,27.1889366667,-81.0870111111
ARCADIA MUNI,AIRPORT,ARCADIA,DE SOTO,FL,ASO,03030.*A,N,PU,PU,27.1919944444,-81.8373047222
MC DONALD'S FIELD,AIRPORT,ARCADIA,DE SOTO,FL,ASO,03030.15*A,N,PR,PR,27.1969944444,-81.9156397222
MARTIN MEMORIAL HOSPITAL,HELIPORT,STUART,MARTIN,FL,ASO,03507.02*H,N,PR,PR,27.2033811111,-80.2414363889
ELLSWORTH FIELD,AIRPORT,ARCADIA,DE SOTO,FL,ASO,03030.09*A,N,PR,PR,27.2055555556,-81.7772222222
BROOKS COUNTY,AIRPORT,FALFURRIAS,BROOKS,TX,ASW,23852.*A,N,PU,PU,27.2060241111,-98.1210375556
OAKS HELISTOP,HELIPORT,VENICE,SARASOTA,FL,ASO,03538.01*H,N,PR,PR,27.2064400000,-82.4881522222
HARBOR LINKS YACHT & COUNTRY CLUB,HELIPORT,STUART,ST LUCIE,FL,ASO,03507.01*H,N,PR,PR,27.2086111111,-80.2913888889
AMISTAD RANCH,HELIPORT,OKEECHOBEE,OKEECHOBEE,FL,ASO,03396.15*H,N,PR,PR,27.2158361111,-80.6848666667
SOUTHERN FRUIT GROVES,AIRPORT,PORT ST. LUCIE,ST LUCIE,FL,ASO,03453.51*A,N,PR,PR,27.2211577778,-80.5206097222
DE SOTO MEMORIAL HOSPITAL,HELIPORT,ARCADIA,DE SOTO,FL,ASO,03030.01*H,N,PR,PU,27.2279888889,-81.8509888889
RIVER OAK,AIRPORT,OKEECHOBEE,OKEECHOBEE,FL,ASO,03396.02*A,N,PR,PR,27.2308797222,-80.9692305556
SUNSET STRIP AIRPARK,AIRPORT,OKEECHOBEE,OKEECHOBEE,FL,ASO,03396.41*A,N,PR,PR,27.2342127778,-80.9036733333
TREASURE COAST AIRPARK,AIRPORT,PORT ST. LUCIE,ST LUCIE,FL,ASO,03200.14*A,N,PR,PR,27.2383794444,-80.4914425000
VINCE'S CONDOMINIUM ASSOCIATION,AIRPORT,LAKE PLACID,HIGHLANDS,FL,ASO,03285.12*A,N,PR,PR,27.2389355556,-81.3859061111
PLACID LAKES,AIRPORT,LAKE PLACID,HIGHLANDS,FL,ASO,03285.11*A,N,PR,PR,27.2456022222,-81.4131288889
CIG 402,HELIPORT,FALFURRIAS,BROOKS,TX,ASW,23850.11*H,N,PR,PR,27.2567088889,-98.0941702778
HCA RAULERSON HOSPITAL,HELIPORT,OKEECHOBEE,OKEECHOBEE,FL,ASO,03396.01*H,N,PR,PR,27.2656008333,-80.8303383333
OKEECHOBEE COUNTY,AIRPORT,OKEECHOBEE,OKEECHOBEE,FL,ASO,03396.*A,N,PU,PU,27.2665833333,-80.8503888889
MOSQUITO CTL,HELIPORT,SARASOTA,SARASOTA,FL,ASO,03483.5*H,N,PR,PR,27.2725000000,-82.3661111111
EVANS PROPERTIES INC,AIRPORT,FORT PIERCE,ST LUCIE,FL,ASO,03201.13*A,N,PR,PR,27.2778225000,-80.5858888889
ST LUCIE MEDICAL CENTER,HELIPORT,PORT ST LUCIE,ST LUCIE,FL,ASO,03453.53*H,N,PR,PR,27.2886111111,-80.2938888889
HIDDEN RIVER,AIRPORT,SARASOTA,SARASOTA,FL,ASO,03483.4*A,N,PR,PR,27.3031025000,-82.2725911111
FRIERSON GROVE,AIRPORT,ARCADIA,DE SOTO,FL,ASO,03030.13*A,N,PR,PR,27.3039347222,-81.8803611111
RANCHO BLANCO,AIRPORT,LAREDO,WEBB,TX,ASW,24192.3*A,N,PR,PR,27.3086344444,-99.4814305556
SARASOTA MEMORIAL HOSPITAL,HELIPORT,SARASOTA,SARASOTA,FL,ASO,03483.1*H,N,PR,PR,27.3178241667,-82.5298194444
FLORIDA HOSPITAL LAKE PLACID,HELIPORT,LAKE PLACID,HIGHLANDS,FL,ASO,03285.21*H,N,PR,PR,27.3205388889,-81.3704777778
RIVER ACRES,AIRPORT,OKEECHOBEE,OKEECHOBEE,FL,ASO,03396.1*A,N,PR,PR,27.3253208333,-81.0286761111
LOWE'S,AIRPORT,SARASOTA,SARASOTA,FL,ASO,03483.14*A,N,PR,PR,27.3308791667,-82.2906469444
CITRUS HEDGING RANCH,AIRPORT,OKEECHOBEE,OKEECHOBEE,FL,ASO,03396.12*A,N,PR,PR,27.3333763889,-80.7361694444
DOVE,HELIPORT,SARASOTA,SARASOTA,FL,ASO,03483.11*H,N,PR,PR,27.3333791667,-82.4300947222
LEWIS,HELIPORT,PREMONT,JIM WELLS,TX,ASW,24563.2*H,N,PR,PR,27.3350444444,-97.1280383333
SARASOTA DEPT OF FIRE-RESCUE EAST SIDE,HELIPORT,SARASOTA,SARASOTA,FL,ASO,03483.12*H,N,PR,PU,27.3389347222,-82.4964852778
AERO ACRES,AIRPORT,FORT PIERCE,ST LUCIE,FL,ASO,03200.13*A,N,PR,PR,27.3419869444,-80.5219988889
SCHWARTZ FARMS INC,AIRPORT,SARASOTA,SARASOTA,FL,ASO,03483.13*A,N,PR,PR,27.3436563889,-82.3173144444
GARDNER,AIRPORT,GARDNER,HARDEE,FL,ASO,03211.*A,N,PR,PR,27.3444883333,-81.7923038889
JIM HOGG COUNTY,AIRPORT,HEBBRONVILLE,JIM HOGG,TX,ASW,24030.121*A,N,PU,PU,27.3495555556,-98.7369444444
FP & L NUCLEAR POWER PLANT,HELIPORT,FORT PIERCE,ST LUCIE,FL,ASO,03200.21*H,N,PR,PR,27.3517088889,-80.2450477778
LAKE PERSIMMON AIRSTRIP,AIRPORT,LAKE PLACID,HIGHLANDS,FL,ASO,03285.02*A,N,PR,PR,27.3530975000,-81.4081286111
WEEKS,AIRPORT,PREMONT,JIM WELLS,TX,ASW,24563.11*A,N,PR,PR,27.3608719444,-98.1794494444
HALES 700,AIRPORT,FORT PIERCE,ST LUCIE,FL,ASO,03200.04*A,N,PR,PR,27.3611530556,-80.5708886111
PAXTON,AIRPORT,OKEECHOBEE,OKEECHOBEE,FL,ASO,03396.3*A,N,PR,PR,27.3611538889,-80.7608922222
SUNNILAND RANCH,AIRPORT,OKEECHOBEE,OKEECHOBEE,FL,ASO,03396.11*A,N,PR,PR,27.3630983333,-80.7728369444
4-G RANCH,AIRPORT,PREMONT,DUVAL,TX,ASW,24563.*A,N,PR,PR,27.3836483333,-98.3100080556
LAKEWOOD RANCH MEDICAL CENTER HELISTOP,HELIPORT,BRADENTON,MANATEE,FL,ASO,03075.01*H,N,PR,PR,27.3902777778,-82.4416666667
SARASOTA/BRADENTON INTL,AIRPORT,SARASOTA/BRADENTON,SARASOTA,FL,ASO,03484.*A,Y,PU,PU,27.3954444444,-82.5543888889
LAKE JOSEPHINE,SEAPLANE BASE,SEBRING,HIGHLANDS,FL,ASO,03493.04*C,N,PR,PR,27.3969444444,-81.4266666667
SEELIGSON RANCH,AIRPORT,PREMONT,JIM WELLS,TX,ASW,24563.1*A,N,PR,PR,27.4044819444,-98.1447263889
WILLIAMS HAWGWILD,AIRPORT,FORT PIERCE,ST LUCIE,FL,ASO,03200.1*A,N,PR,PR,27.4089288889,-80.4278302778
SOUTHEASTERN,AIRPORT,FORT PIERCE,ST LUCIE,FL,ASO,03200.*A,N,PR,PR,27.4114288889,-80.5261658333
GRIFFINS PEACE RIVER RANCH,AIRPORT,ZOLFO SPRINGS,HARDEE,FL,ASO,03580.*A,N,PR,PR,27.4189300000,-81.8325825000
O S WYATT,AIRPORT,REALITOS,DUVAL,TX,ASW,24602.*A,N,PR,PR,27.4216472222,-98.6043500000
LAWNWOOD MEDICAL CENTER,HELIPORT,FORT PIERCE,ST LUCIE,FL,ASO,03201.01*H,N,PR,PR,27.4308727778,-80.3456058333
SANTA MARIA RANCH,AIRPORT,LAREDO,WEBB,TX,ASW,24194.01*A,N,PR,PR,27.4337944444,-99.1859388889
ADAMS RANCH,AIRPORT,FORT PIERCE,ST LUCIE,FL,ASO,03200.02*A,N,PR,PR,27.4419838889,-80.5842225000
DRAGONFLY,AIRPORT,FORT PIERCE,ST LUCIE,FL,ASO,03200.03*A,N,PR,PR,27.4439280556,-80.5650555556
VAN ES RANCH,AIRPORT,OILTON,WEBB,TX,ASW,24433.*A,N,PR,PR,27.4553069444,-98.9264125000
MYAKKA HEAD,AIRPORT,ZOLFO SPRINGS,MANATEE,FL,ASO,03580.01*A,N,PR,PR,27.4555555556,-82.1050000000
SEBRING RGNL,AIRPORT,SEBRING,HIGHLANDS,FL,ASO,03493.*A,N,PU,PU,27.4563888889,-81.3423888889
HIGHLANDS RGNL MEDICAL CENTER,HELIPORT,SEBRING,HIGHLANDS,FL,ASO,03493.02*H,N,PR,PU,27.4655930556,-81.4322955556
BAGGETT,AIRPORT,FORT PIERCE,ST LUCIE,FL,ASO,03200.2*A,N,PR,PR,27.4697600000,-80.4164411111
HCA L.W. BLAKE HOSPITAL,HELIPORT,BRADENTON,MANATEE,FL,ASO,03075.*H,N,PR,PR,27.4828177778,-82.5231516667
BARRONENA EAST,AIRPORT,HEBBRONVILLE,DUVAL,TX,ASW,24030.11*A,N,PR,PR,27.4850336111,-98.6619611111
BARRONENA RANCH,AIRPORT,HEBBRONVILLE,DUVAL,TX,ASW,24030.12*A,N,PR,PR,27.4911444444,-98.6694613889
ST LUCIE COUNTY INTL,AIRPORT,FORT PIERCE,ST LUCIE,FL,ASO,03202.*A,Y,PU,PU,27.4974722222,-80.3726388889
MANATEE MEMORIAL HOSPITAL,HELIPORT,BRADENTON,MANATEE,FL,ASO,03075.02*H,N,PR,PR,27.4991666667,-82.5627777778
KINGSVILLE NAS,AIRPORT,KINGSVILLE,KLEBERG,TX,ASW,24166.*A,Y,PR,MN,27.5045147222,-97.8082888889
WAUCHULA MUNI,AIRPORT,WAUCHULA,HARDEE,FL,ASO,03546.1*A,N,PU,PU,27.5149166667,-81.8804722222
LAREDO MEDICAL CENTER,HELIPORT,LAREDO,WEBB,TX,ASW,24192.7*H,N,PR,PR,27.5339500000,-99.4778472222
FLORIDA HOSPITAL-SEBRING,HELIPORT,SEBRING,HIGHLANDS,FL,ASO,03493.05*H,N,PR,PR,27.5380555556,-81.5092250000
SUN N LAKE,HELIPORT,SEBRING,HIGHLANDS,FL,ASO,03493.03*H,N,PR,PR,27.5386444444,-81.5097972222
INDIAN HAMMOCK,AIRPORT,FORT DRUM,OKEECHOBEE,FL,ASO,03191.8*A,N,PR,PR,27.5419813889,-80.8331161111
LAREDO INTL,AIRPORT,LAREDO,WEBB,TX,ASW,24194.*A,Y,PU,PU,27.5441944444,-99.4615833333
THOMSON AIRFIELD,AIRPORT,ELLENTON,MANATEE,FL,ASO,03178.*A,N,PR,PR,27.5442038889,-82.5300961111
SCOTT 2000,AIRPORT,VERO BEACH,INDIAN RIVER,FL,ASO,03539.6*A,N,PR,PR,27.5472586111,-80.6620016667
KLEBERG COUNTY,AIRPORT,KINGSVILLE,KLEBERG,TX,ASW,24166.7*A,N,PU,PU,27.5508611111,-98.0309166667
HAMILTON RANCH,AIRPORT,BRUNI,DUVAL,TX,ASW,23504.*A,N,PR,PR,27.5530863889,-98.7322402778
TRIPLE M,AIRPORT,VERO BEACH,ST LUCIE,FL,ASO,03539.3*A,N,PR,PR,27.5542016667,-80.4397750000
FLY IN RANCHES,AIRPORT,VERO BEACH,INDIAN RIVER,FL,ASO,03539.4*A,N,PR,PR,27.5625347222,-80.4997763889
LAKE MONTAZA,AIRPORT,OKEECHOBEE,OKEECHOBEE,FL,ASO,03396.14*A,N,PR,PR,27.5802777778,-80.8152777778
AVON PARK EXECUTIVE,AIRPORT,AVON PARK,HIGHLANDS,FL,ASO,03042.*A,N,PU,PU,27.5912998889,-81.5289668333
RECREATION CORPORATION,AIRPORT,OKEECHOBEE,OKEECHOBEE,FL,ASO,03396.5*A,N,PR,PR,27.5980902778,-80.8458938889
INDIAN RIVER AERODROME,AIRPORT,VERO BEACH,INDIAN RIVER,FL,ASO,03539.1*A,N,PR,PR,27.5986447222,-80.5019983333
DOCTORS HOSPITAL,HELIPORT,LAREDO,WEBB,TX,ASW,24192.4*H,N,PR,PR,27.6067166667,-99.4794527778
BISHOP MUNI,AIRPORT,BISHOP,NUECES,TX,ASW,23442.*A,N,PU,PU,27.6101666667,-97.7525277778
CREWS HOMESTEAD RANCH,AIRPORT,AVON PARK,HARDEE,FL,ASO,03042.1*A,N,PR,PR,27.6211444444,-81.6106333333
NEW HIBISCUS AIRPARK,AIRPORT,VERO BEACH,INDIAN RIVER,FL,ASO,03539.2*A,N,PU,PR,27.6322550000,-80.5275544444
WALDRON FLD NOLF,AIRPORT,CORPUS CHRISTI,NUECES,TX,ASW,23662.*A,Y,PR,PU,27.6350000000,-97.3122222222
AIRPORT MANATEE,AIRPORT,PALMETTO,MANATEE,FL,ASO,03424.12*A,N,PU,PR,27.6424722222,-82.5201666667
MACDILL AFB AUX FLD,AIRPORT,AVON PARK,POLK,FL,ASO,03043.*A,N,PR,MA,27.6478500000,-81.3415638889
DEAN,AIRPORT,CORPUS CHRISTI,NUECES,TX,ASW,23657.3*A,N,PR,PR,27.6550316667,-97.5252713889
VERO BEACH MUNI,AIRPORT,VERO BEACH,INDIAN RIVER,FL,ASO,03540.*A,Y,PU,PU,27.6555555556,-80.4179444444
INDIAN RIVER MEMORIAL HOSPITAL,HELIPORT,VERO BEACH,INDIAN RIVER,FL,ASO,03539.5*H,N,PR,PR,27.6639202778,-80.3961622222
GYRO TOWN USA,AIRPORT,WIMAUMA,HILLSBOROUGH,FL,ASO,03561.01*A,N,PR,PR,27.6844444444,-82.2441666667
CHRISTUS SPOHN SOUTH,HELIPORT,CORPUS CHRISTI,NUECES,TX,ASW,23658.24*H,N,PR,PR,27.6848333333,-97.3771666667
CORPUS CHRISTI NAS/TRUAX FIELD,AIRPORT,CORPUS CHRISTI,NUECES,TX,ASW,23660.*A,Y,PR,MN,27.6927008333,-97.2903758333
CABANISS FIELD NOLF,AIRPORT,CORPUS CHRISTI,NUECES,TX,ASW,23658.*A,Y,PR,MN,27.7027121389,-97.4389001667
BROOCKE AIR PATCH,AIRPORT,WINTER BEACH,INDIAN RIVER,FL,ASO,03566.*A,N,PR,PR,27.7086411111,-80.4528300000
WIMAUMA AIR PARK,AIRPORT,WIMAUMA,HILLSBOROUGH,FL,ASO,03561.*A,N,PR,PR,27.7119752778,-82.2828686111
DOUGLASS RANCH,AIRPORT,FREER,DUVAL,TX,ASW,23906.*A,N,PR,PR,27.7155000000,-98.7025333333
MUSTANG ISLAND,HELIPORT,PORT ARANSAS,NUECES,TX,ASW,24528.21*H,N,PR,PR,27.7158658333,-97.1730441667
CUDDIHY FIELD,AIRPORT,CORPUS CHRISTI,NUECES,TX,ASW,23657.*A,N,PR,PR,27.7211402778,-97.5127711111
INDUSTRIAL HELICOPTERS INC,HELIPORT,CORPUS CHRISTI,NUECES,TX,ASW,23657.12*H,N,PR,PR,27.7233333333,-97.5733333333
BAHIA BEACH,HELIPORT,RUSKIN,HILLSBOROUGH,FL,ASO,03464.81*H,N,PR,PR,27.7297513889,-82.4753725000
GRIFFIN'S MAIN OFFICE,HELIPORT,FROSTPROOF,POLK,FL,ASO,03206.02*H,N,PR,PR,27.7369738889,-81.5320200000
ALICE INTL,AIRPORT,ALICE,JIM WELLS,TX,ASW,23305.*A,N,PU,PU,27.7408888889,-98.0269444444
TEXAS DEPT. OF PUBLIC SAFETY,HELIPORT,CORPUS CHRISTI,NUECES,TX,ASW,23657.4*H,N,PR,PU,27.7411405556,-97.4349922222
FELLSMERE,AIRPORT,FELLSMERE,INDIAN RIVER,FL,ASO,03184.5*A,N,PR,PR,27.7416958333,-80.6661675000
TGP 1,HELIPORT,AGUA DULCE,NUECES,TX,ASW,23292.*H,N,PR,PR,27.7444713889,-97.8463869444
D.F.C.H.,HELIPORT,CORPUS CHRISTI,NUECES,TX,ASW,23657.5*H,N,PR,PR,27.7486408333,-97.3847138889
LAKE CLINCH AIRPARK,AIRPORT,FROSTPROOF,POLK,FL,ASO,03206.11*A,N,PR,PR,27.7503069444,-81.5595208333
RIDGE LANDING,AIRPORT,FROSTPROOF,POLK,FL,ASO,03206.03*A,N,PR,PR,27.7552777778,-81.5997222222
GODDARD SEADROME,SEAPLANE BASE,FROSTPROOF,POLK,FL,ASO,03206.12*C,N,PR,PR,27.7553063889,-81.5139641667
BAYFRONT MEDICAL CENTER INC,HELIPORT,ST PETERSBURG,PINELLAS,FL,ASO,03474.03*H,N,PR,PR,27.7633608333,-82.6423208333
ALBERT WHITTED,AIRPORT,ST PETERSBURG,PINELLAS,FL,ASO,03474.*A,Y,PU,PU,27.7651111111,-82.6269722222
CORPUS CHRISTI INTL,AIRPORT,CORPUS CHRISTI,NUECES,TX,ASW,23657.2*A,Y,PU,PU,27.7703611111,-97.5012222222
SHORELINE HOSPITAL,HELIPORT,CORPUS CHRISTI,NUECES,TX,ASW,23658.25*H,N,PR,PR,27.7778333333,-97.3943750000
MILLS RANCH SOUTH,AIRPORT,KENANSVILLE,OSCEOLA,FL,ASO,03260.01*A,N,PR,PR,27.7783333333,-80.9219444444
NUECES COUNTY,AIRPORT,ROBSTOWN,NUECES,TX,ASW,24631.*A,N,PU,PU,27.7785430556,-97.6905238889
BLANKET BAY,AIRPORT,YEEHAW JUNCTION,OSCEOLA,FL,ASO,03575.*A,N,PR,PR,27.7786388889,-81.0997880556
RIVER RANCH RESORT,AIRPORT,RIVER RANCH,POLK,FL,ASO,03462.98*A,N,PU,PR,27.7793333333,-81.2039166667
CHRISTUS SPOHN HOSPITAL MEMORIAL,HELIPORT,CORPUS CHRISTI,NUECES,TX,ASW,23658.23*H,N,PR,PU,27.7797500000,-97.4141588889
WATERS,HELIPORT,FORT MEADE,POLK,FL,ASO,03195.5*H,N,PR,PR,27.7800833333,-81.6432777778
VILLA CHAR MAR,AIRPORT,FORT MEADE,POLK,FL,ASO,03195.51*A,N,PR,PR,27.7850000000,-81.6511111111
OLD HOPPE PLACE,AIRPORT,AGUA DULCE,NUECES,TX,ASW,23292.01*A,N,PU,PR,27.8003022222,-97.8512205556
RABB DUSTING INC,AIRPORT,ROBSTOWN,NUECES,TX,ASW,24631.01*A,N,PR,PR,27.8039130556,-97.7436075000
STANCHESTER,AIRPORT,LITHIA,HILLSBOROUGH,FL,ASO,03304.*A,N,PR,PR,27.8058606944,-82.1400881667
BAY PINES VETERANS ADMINISTRATION,HELIPORT,ST PETERSBURG,PINELLAS,FL,ASO,03474.01*H,N,PR,PU,27.8080811111,-82.7745461111
RLM FARMS,AIRPORT,KENANSVILLE,INDIAN RIVER,FL,ASO,03260.*A,N,PR,PR,27.8100266667,-80.8589491667
MUSTANG BEACH,AIRPORT,PORT ARANSAS,NUECES,TX,ASW,24528.2*A,N,PU,PU,27.8118333333,-97.0887500000
SEBASTIAN MUNI,AIRPORT,SEBASTIAN,INDIAN RIVER,FL,ASO,03489.1*A,N,PU,PU,27.8132347222,-80.4955840833
HPL,HELIPORT,CORPUS CHRISTI,NUECES,TX,ASW,23657.11*H,N,PR,PR,27.8330797222,-97.5402716667
DUVAL COUNTY RANCH CO,AIRPORT,FREER,DUVAL,TX,ASW,23906.11*A,N,PR,PR,27.8336313889,-98.7169619444
TIMMER,HELIPORT,LAKE WALES,POLK,FL,ASO,03288.11*H,N,PR,PR,27.8346694444,-81.4375333333
NAVSTA INGLESIDE,HELIPORT,INGLESIDE,SAN PATRICIO,TX,ASW,24096.63*H,N,PR,PU,27.8353044444,-97.2036011111
DAVID WINE'S AIRSTRIP,AIRPORT,LAKE WALES,POLK,FL,ASO,03288.23*A,N,PR,PR,27.8444444444,-81.4397222222
JBH AEROSPACE,HELIPORT,INGLESIDE,SAN PATRICIO,TX,ASW,24096.611*H,N,PR,PR,27.8447486111,-97.2238791667
MIDSTREAM HARBOR ISLAND,HELIPORT,PORT ARANSAS,SAN PATRICIO,TX,ASW,24528.22*H,N,PR,PR,27.8463888889,-97.0630555556
ARCO INGLESIDE SHOREBASE,HELIPORT,INGLESIDE,SAN PATRICIO,TX,ASW,24096.6*H,N,PR,PR,27.8478038889,-97.2230458333
MAC DILL AFB,AIRPORT,TAMPA,HILLSBOROUGH,FL,ASO,03514.*A,Y,PR,MA,27.8493333333,-82.5211666667
HIGH MAN TOWER AIRSTRIP,AIRPORT,ROBSTOWN,NUECES,TX,ASW,24631.02*A,N,PR,PR,27.8542658333,-97.6822747222
FLYING S RANCH,AIRPORT,KENANSVILLE,OSCEOLA,FL,ASO,03260.03*A,N,PR,PR,27.8608611111,-80.9998611111
OAK RIDGE,HELIPORT,INGLESIDE,SAN PATRICIO,TX,ASW,24096.61*H,N,PR,PR,27.8611366667,-97.1988788889
ESCAPE RANCH,AIRPORT,KENANSVILLE,OSCEOLA,FL,ASO,03260.02*A,N,PR,PR,27.8627777778,-80.9580555556
LAND SOUTH,HELIPORT,MULBERRY,POLK,FL,ASO,03369.62*H,N,PR,PR,27.8663888889,-81.9694444444
PINELLAS COUNTY MOSQUITO CONTROL,HELIPORT,PINELLAS PARK,PINELLAS,FL,ASO,03443.35*H,N,PR,PU,27.8755788889,-82.6892661111
CALLAGHAN RANCH,AIRPORT,CALLAGHAN,WEBB,TX,ASW,23538.*A,N,PR,PR,27.8794444444,-99.3966666667
BARTOW HIGH SCHOOL,HELIPORT,BARTOW,POLK,FL,ASO,03052.01*H,N,PR,PU,27.8800261111,-81.8411930556
DUVAL-FREER,AIRPORT,FREER,DUVAL,TX,ASW,23907.*A,N,PU,PU,27.8836297222,-98.6002925000
TIGER LAKE,AIRPORT,RIVER RANCH,POLK,FL,ASO,03462.97*A,N,PR,PR,27.8836333333,-81.3631250000
LAKE MARIAN,SEAPLANE BASE,KENANSVILLE,OSCEOLA,FL,ASO,03260.04*C,N,PR,PR,27.8863888889,-81.0838888889
HUNT,AIRPORT,PORTLAND,SAN PATRICIO,TX,ASW,24540.*A,N,PU,PR,27.8878011111,-97.3544363889
PINELLAS COUNTY SHERIFF'S BUILDING,HELIPORT,LARGO,PINELLAS,FL,ASO,03290.*H,N,PR,PR,27.8914113889,-82.7892688889
LAKE WALES MUNI,AIRPORT,LAKE WALES,POLK,FL,ASO,03288.*A,N,PU,PU,27.8938055556,-81.6203888889
ORANGE GROVE NALF,AIRPORT,ORANGE GROVE,JIM WELLS,TX,ASW,24446.*A,Y,PR,MN,27.8968184167,-98.0435553611
LEWIS,AIRPORT,BRANDON,HILLSBOROUGH,FL,ASO,03075.71*A,N,PR,PR,27.8986361111,-82.1825888889
SHERIFFS HELISTOP,HELIPORT,BARTOW,POLK,FL,ASO,03052.02*H,N,PR,PU,27.9000255556,-81.8450816667
KEARNEY CONSTRUCTION,HELIPORT,RIVERVIEW,HILLSBOROUGH,FL,ASO,03463.02*H,N,PR,PR,27.9044444444,-82.3833333333
FULTON,SEAPLANE BASE,SEBASTIAN,BREVARD,FL,ASO,03489.*C,N,PR,PR,27.9075222222,-80.4864411111
ST PETERSBURG-CLEARWATER INTL,AIRPORT,ST PETERSBURG-CLEARWATER,PINELLAS,FL,ASO,03475.*A,Y,PU,PU,27.9100000000,-82.6874166667
T P MC CAMPBELL,AIRPORT,INGLESIDE,SAN PATRICIO,TX,ASW,24096.62*A,N,PU,PU,27.9130277778,-97.2115000000
NORTH BAY GENERAL HOSPITAL INC,HELIPORT,ARANSAS PASS,SAN PATRICIO,TX,ASW,23345.01*H,N,PR,PR,27.9133563889,-97.1591563889
PETER O KNIGHT,AIRPORT,TAMPA,HILLSBOROUGH,FL,ASO,03519.*A,N,PU,PU,27.9154546944,-82.4493946389
MAGEE,AIRPORT,PORTLAND,SAN PATRICIO,TX,ASW,24540.01*A,N,PR,PR,27.9158333333,-97.3202777778
LAKE WALES,HELIPORT,LAKE WALES,POLK,FL,ASO,03288.1*H,N,PR,PR,27.9161347222,-81.5486866667
BARTOW MEMORIAL HOSPITAL,HELIPORT,BARTOW,POLK,FL,ASO,03052.03*H,N,PR,PR,27.9189138889,-81.8450805556
PORTA TARGET,HELIPORT,PALM BAY,BREVARD,FL,ASO,03422.31*H,N,PR,PR,27.9241888889,-80.6136666667
HOSPITAL BRANDON HELISTOP,HELIPORT,BRANDON,HILLSBOROUGH,FL,ASO,03075.72*H,N,PR,PR,27.9322455556,-82.2884247222
SOUTH LAKELAND,AIRPORT,LAKELAND,POLK,FL,ASO,03281.1*A,N,PU,PR,27.9333580556,-82.0439738889
TAMPA GENERAL HOSPITAL,HELIPORT,TAMPA,HILLSBOROUGH,FL,ASO,03513.3*H,N,PR,PR,27.9380775000,-82.4592611111
BENT WILLIES,AIRPORT,LAKE WALES,POLK,FL,ASO,03288.13*A,N,PR,PR,27.9396111111,-81.4320277778
L M HUGHEY,HELIPORT,TAMPA,HILLSBOROUGH,FL,ASO,03513.14*H,N,PR,PR,27.9414102778,-82.5353738889
BARTOW MUNI,AIRPORT,BARTOW,POLK,FL,ASO,03052.*A,Y,PU,PU,27.9433611111,-81.7834166667
WFLA-TV 8,HELIPORT,TAMPA,HILLSBOROUGH,FL,ASO,03513.03*H,N,PR,PR,27.9438888889,-82.4616666667
SAN JOSE ISLAND,AIRPORT,ROCKPORT,ARANSAS,TX,ASW,24633.01*A,N,PR,PR,27.9444444444,-96.9850000000
SAGE SEADROME,SEAPLANE BASE,LAKE WALES,POLK,FL,ASO,03288.22*C,N,PR,PR,27.9455775000,-81.4034055556
ACADEMY,HELIPORT,TAMPA,HILLSBOROUGH,FL,ASO,03513.17*H,N,PR,PU,27.9469663889,-82.4209269444
MEZRAH,SEAPLANE BASE,TAMPA,HILLSBOROUGH,FL,ASO,03513.04*C,N,PR,PR,27.9475305556,-82.3908722222
DANCING OAKS,HELIPORT,BARTOW,POLK,FL,ASO,03052.04*H,N,PR,PR,27.9484361111,-81.8634972222
TECO PLAZA,HELIPORT,TAMPA,HILLSBOROUGH,FL,ASO,03513.19*H,N,PR,PR,27.9497436111,-82.4600944444
MORTON PLANT HOSPITAL,HELIPORT,CLEARWATER,PINELLAS,FL,ASO,03112.01*H,N,PR,PR,27.9533536111,-82.8042691667
CHALET SUZANNE AIR STRIP,AIRPORT,LAKE WALES,POLK,FL,ASO,03288.2*A,N,PU,PR,27.9538055556,-81.6014166667
TEMPLE RANCH,AIRPORT,FREER,DUVAL,TX,ASW,23906.12*A,N,PR,PR,27.9574444444,-98.4038888889
VALKARIA,AIRPORT,VALKARIA,BREVARD,FL,ASO,03533.8*A,N,PU,PU,27.9608611111,-80.5583333333
TAMPA INTL,AIRPORT,TAMPA,HILLSBOROUGH,FL,ASO,03513.*A,Y,PU,PU,27.9754722222,-82.5332500000
CLEARWATER AIR PARK,AIRPORT,CLEARWATER,PINELLAS,FL,ASO,03112.*A,N,PU,PU,27.9766863889,-82.7587402778
SAN PATRICIO INTL,AIRPORT,SAN PATRICIO,SAN PATRICIO,TX,ASW,24736.01*A,N,PR,PR,27.9808494444,-97.7869422222
CARE FLIGHT,HELIPORT,TAMPA,HILLSBOROUGH,FL,ASO,03513.4*H,N,PR,PR,27.9819644444,-82.4914838889
LEWIS RANCH,AIRPORT,ENCINAL,WEBB,TX,ASW,23833.01*A,N,PR,PR,27.9836183333,-99.3767013889
JOHNSON,HELIPORT,SAFETY HARBOR,PINELLAS,FL,ASO,03466.*H,N,PR,PR,27.9869638889,-82.7187113889
LAKELAND LINDER RGNL,AIRPORT,LAKELAND,POLK,FL,ASO,03283.*A,Y,PU,PU,27.9889166667,-82.0185555556
LEGOLAND FLORIDA,HELIPORT,WINTER HAVEN,POLK,FL,ASO,03570.4*H,N,PR,PR,27.9897222222,-81.6930555556
SEVEN C'S RANCH,AIRPORT,FREER,WEBB,TX,ASW,23906.01*A,N,PR,PR,27.9971123611,-98.8828608333
PLANT CITY,AIRPORT,PLANT CITY,HILLSBOROUGH,FL,ASO,03446.*A,N,PU,PU,28.0001554167,-82.1633102778
EMS,HELIPORT,TAMPA,HILLSBOROUGH,FL,ASO,03513.22*H,N,PR,PU,28.0030752778,-82.4289827778
LITTLE'S,HELIPORT,LAKELAND,POLK,FL,ASO,03281.16*H,N,PR,PR,28.0105775000,-81.8789700000
TAMPA EXECUTIVE,AIRPORT,TAMPA,HILLSBOROUGH,FL,ASO,03513.1*A,N,PU,PU,28.0139722222,-82.3452777778
SOUTHERLY,AIRPORT,DUNDEE,POLK,FL,ASO,03164.*A,N,PR,PR,28.0141666667,-81.5405555556
MEASE HOSPITAL EMERGENCY,HELIPORT,DUNEDIN,PINELLAS,FL,ASO,03165.01*H,N,PR,PR,28.0141850000,-82.7820463889
ADAMS EXECUTIVE,HELIPORT,WINTER HAVEN,POLK,FL,ASO,03570.14*H,N,PR,PR,28.0169444444,-81.6750000000
DUNEDIN,HELIPORT,DUNEDIN,PINELLAS,FL,ASO,03165.*H,N,PR,PR,28.0197402778,-82.7898244444
WINTER HAVEN HOSPITAL,HELIPORT,WINTER HAVEN,POLK,FL,ASO,03570.13*H,N,PR,PR,28.0280555556,-81.7247222222
LAZY B I RANCH,HELIPORT,WINTER HAVEN,POLK,FL,ASO,03570.11*H,N,PR,PR,28.0297427778,-81.6545216667
ALFRED C 'BUBBA' THOMAS,AIRPORT,SINTON,SAN PATRICIO,TX,ASW,24804.*A,N,PU,PU,28.0385668611,-97.5425012500
KING SEAAERO,SEAPLANE BASE,WINTER HAVEN,POLK,FL,ASO,03570.21*C,N,PR,PR,28.0386316667,-81.7536902778
MEASE HOSPITAL COUNTRYSIDE,HELIPORT,SAFETY HARBOR,PINELLAS,FL,ASO,03466.1*H,N,PR,PR,28.0389063889,-82.7078777778
GULF AEROSPACE,HELIPORT,OLDSMAR,PINELLAS,FL,ASO,03399.5*H,N,PR,PR,28.0411286111,-82.6550988889
MIDWAY LAKE,AIRPORT,PLANT CITY,HILLSBOROUGH,FL,ASO,03446.02*A,N,PR,PR,28.0419583333,-82.0923055556
TEDFORD RANCH,AIRPORT,MELBOURNE,OSCEOLA,FL,ASO,03321.02*A,N,PR,PR,28.0433525000,-81.0192297222
EAGLES NEST,HELIPORT,AUBURNDALE,POLK,FL,ASO,03040.02*H,N,PR,PR,28.0438888889,-81.8486111111
JACK BROWNS,SEAPLANE BASE,WINTER HAVEN,POLK,FL,ASO,03570.2*C,N,PU,PR,28.0575000000,-81.7628055556
MARKET WORLD,AIRPORT,AUBURNDALE,POLK,FL,ASO,03040.*A,N,PR,PR,28.0586308333,-81.8164686111
LAKELAND RGNL MEDICAL CENTER,HELIPORT,LAKELAND,POLK,FL,ASO,03281.14*H,N,PR,PR,28.0591866667,-81.9539705556
WINTER HAVEN'S GILBERT,AIRPORT,WINTER HAVEN,POLK,FL,ASO,03570.*A,N,PU,PU,28.0629166667,-81.7533055556
GAMEBIRD GROVES AIRSTRIP,AIRPORT,WEST MELBOURNE,OSCEOLA,FL,ASO,03553.*A,N,PR,PR,28.0658511111,-80.9022825000
LA ESPERANZA RANCH,AIRPORT,ENCINAL,WEBB,TX,ASW,23833.*A,N,PR,PR,28.0730580556,-99.5742088889
EL JARDIN RANCH,AIRPORT,ENCINAL,LA SALLE,TX,ASW,23833.04*A,N,PR,PR,28.0750000000,-99.2863888889
ARANSAS CO,AIRPORT,ROCKPORT,ARANSAS,TX,ASW,24633.*A,N,PU,PU,28.0862222222,-97.0436944444
HOLMES RGNL MEDICAL CENTER,HELIPORT,MELBOURNE,BREVARD,FL,ASO,03321.04*H,N,PR,PR,28.0877933333,-80.6136644444
CRESCENT C RANCH,AIRPORT,COTULLA,LA SALLE,TX,ASW,23667.09*A,N,PR,PR,28.0888888889,-99.0488888889
MELBOURNE INTL,AIRPORT,MELBOURNE,BREVARD,FL,ASO,03321.*A,Y,PU,PU,28.1027527778,-80.6452569444
GARNER LANDING,SEAPLANE BASE,AUBURNDALE,POLK,FL,ASO,03040.01*C,N,PR,PR,28.1036277778,-81.8059111111
LAKE GIBSON,SEAPLANE BASE,LAKELAND,POLK,FL,ASO,03281.13*C,N,PR,PR,28.1086286111,-81.9586925000
ARROWHEAD,AIRPORT,LAGARTO,LIVE OAK,TX,ASW,24178.5*A,N,PR,PR,28.1155658333,-97.9308338889
ARANSAS NATIONAL WILDLIFE REFUGE,AIRPORT,MATAGORDA ISLAND,CALHOUN,TX,ASW,24316.4*A,N,PR,PU,28.1169577778,-96.8002633333
GOULD STRIP,AIRPORT,COTULLA,LA SALLE,TX,ASW,23667.04*A,N,PR,PR,28.1261186111,-98.8597436111
ST. JOSEPH'S HOSPITAL NORTH,HELIPORT,LUTZ,HILLSBOROUGH,FL,ASO,03308.491*H,N,PR,PR,28.1280555556,-82.5063888889
OAK HARBOR,SEAPLANE BASE,HAINES CITY,POLK,FL,ASO,03222.11*C,N,PR,PR,28.1289058333,-81.6878547222
HELEN ELLIS HOSPITAL,HELIPORT,TARPON SPRINGS,PINELLAS,FL,ASO,03522.6*H,N,PR,PR,28.1326333333,-82.7583333333
LAKE GIBSON HIGH SCHOOL,HELIPORT,LAKELAND,POLK,FL,ASO,03281.19*H,N,PR,PU,28.1336275000,-81.9428586111
BLACKWATER CREEK,ULTRALIGHT,PLANT CITY,HILLSBOROUGH,FL,ASO,03446.01*U,N,PR,PR,28.1369588889,-82.1464738889
GENTRY,AIRPORT,ST CLOUD,OSCEOLA,FL,ASO,03471.21*A,N,PR,PR,28.1372380556,-81.2634022222
STRAIT RANCH,AIRPORT,ENCINAL,WEBB,TX,ASW,23833.03*A,N,PR,PR,28.1400000000,-99.5703194444
EL CABALLERO,AIRPORT,COTULLA,LA SALLE,TX,ASW,23667.08*A,N,PR,PR,28.1401988889,-98.9359969444
GHOST APACHE,AIRPORT,COTULLA,LA SALLE,TX,ASW,23667.06*A,N,PR,PR,28.1402833333,-98.9129388889
ROSSLER RANCH,AIRPORT,GEORGE WEST,LIVE OAK,TX,ASW,23934.6*A,N,PR,PR,28.1430644444,-98.1583388889
GORE,AIRPORT,HAINES CITY,POLK,FL,ASO,03222.111*A,N,PR,PR,28.1433497222,-81.6470202778
KALT RANCH,AIRPORT,FULTON,ARANSAS,TX,ASW,23909.8*A,N,PR,PR,28.1544558333,-96.9769338889
GATOR AIRPARK,AIRPORT,ST CLOUD,OSCEOLA,FL,ASO,03471.1*A,N,PR,PR,28.1575155556,-81.2347966667
LOS CUERNOS RANCH,AIRPORT,COTULLA,LA SALLE,TX,ASW,23667.07*A,N,PR,PR,28.1661444444,-99.0916361111
FERRIS,AIRPORT,BAYTOWN,HARRIS,TX,ASW,23412.18*A,N,PR,PR,29.8366125000,-94.9674266667
ORLAMPA INC,AIRPORT,POLK CITY,POLK,FL,ASO,03449.12*A,N,PR,PR,28.1669597222,-81.8081341667
MORRIS RANCH,AIRPORT,COTULLA,LA SALLE,TX,ASW,23667.01*A,N,PR,PR,28.1697275000,-98.8900225000
GERACI AIRPARK,AIRPORT,LUTZ,PASCO,FL,ASO,03308.5*A,N,PR,PR,28.1750000000,-82.4877777778
HEART OF FLORIDA MEDICAL CENTER,HELIPORT,HAINES CITY,POLK,FL,ASO,03222.09*H,N,PR,PR,28.1797361111,-81.6389638889
LAKE BIRD,HELIPORT,LUTZ,PASCO,FL,ASO,03308.49*H,N,PR,PR,28.1809000000,-82.4556000000
BAYFLITE ONE SATELLITE BASE,HELIPORT,ODESSA,PASCO,FL,ASO,03394.9*H,N,PR,PR,28.1886111111,-82.6266666667
CHUPADERA RANCH,AIRPORT,CARRIZO SPRINGS,WEBB,TX,ASW,23559.*A,N,PR,PR,28.1924950000,-100.0722819444
PASCO COUNTY MOSQUITO,HELIPORT,NEW PORT RITCHE,PASCO,FL,ASO,03385.03*H,N,PR,PR,28.1925000000,-82.6216666667
BAYFLITE ONE,HELIPORT,ODESSA,PASCO,FL,ASO,03394.89*H,N,PR,PR,28.1938888889,-82.6205555556
UNO MAS RANCH,AIRPORT,COTULLA,LA SALLE,TX,ASW,23667.02*A,N,PR,PR,28.2058350000,-99.1344727778
FLANDERS FIELD,AIRPORT,POLK CITY,POLK,FL,ASO,03449.11*A,N,PR,PR,28.2064025000,-81.8278561111
FAITH RANCH,AIRPORT,CARRIZO SPRINGS,DIMMIT,TX,ASW,23559.14*A,N,PR,PR,28.2085555556,-100.0188055556
LAKE X,AIRPORT,ST CLOUD,OSCEOLA,FL,ASO,03471.3*A,N,PR,PR,28.2086244444,-81.1192316667
GREEN SWAMP AERODROME,AIRPORT,LAKELAND,POLK,FL,ASO,03281.2*A,N,PR,PR,28.2116791667,-81.9986919444
NIERENBERG ESTATE,HELIPORT,MELBOURNE,BREVARD,FL,ASO,03321.05*H,N,PR,PR,28.2183444444,-80.6842202778
TAMPA NORTH AERO PARK,AIRPORT,TAMPA,PASCO,FL,ASO,03515.*A,N,PU,PR,28.2212777778,-82.3745555556
VIERA HOSPITAL,HELIPORT,MELBOURNE,BREVARD,FL,ASO,03321.07*H,N,PR,PR,28.2267777778,-80.7309722222
SOUTHFORK,HELIPORT,SAINT CLOUD,OSCEOLA,FL,ASO,03471.03*H,N,PR,PR,28.2269444444,-81.3665277778
ZEPHYRHILLS MUNI,AIRPORT,ZEPHYRHILLS,PASCO,FL,ASO,03577.*A,N,PU,PU,28.2281357500,-82.1559249722
PATRICK AFB,AIRPORT,COCOA BEACH,BREVARD,FL,ASO,03121.*A,Y,PR,MA,28.2350056667,-80.6099794722
HCA NEW PORT RICHEY HOSPITAL,HELIPORT,NEW PORT RICHEY,PASCO,FL,ASO,03385.*H,N,PR,PR,28.2350102778,-82.7178780556
ST CLOUD HOSPITAL,HELIPORT,ST CLOUD,OSCEOLA,FL,ASO,03471.01*H,N,PR,PR,28.2358463889,-81.3020136111
ARROWHEAD RANCH,AIRPORT,TILDEN,MC MULLEN,TX,ASW,24925.*A,N,PR,PR,28.2461111111,-98.5527777778
KNOBEL,HELIPORT,COCOA,BREVARD,FL,ASO,03120.12*H,N,PR,PR,28.2484527778,-80.6619694444
BRISCOES CATARINA RANCH,AIRPORT,CATARINA,DIMMIT,TX,ASW,23575.1*A,N,PR,PR,28.2502725000,-99.8169966667
TOHO,SEAPLANE BASE,KISSIMMEE,OSCEOLA,FL,ASO,03267.2*C,N,PR,PR,28.2502905556,-81.3914594444
GEZIK,SEAPLANE BASE,ROCKLEDGE,BREVARD,FL,ASO,03463.5*C,N,PR,PR,28.2519444444,-80.6688888889
HARRISON PILONCILLO RANCH,AIRPORT,CATARINA,DIMMIT,TX,ASW,23575.11*A,N,PR,PR,28.2544402778,-99.5992108333
VA OUTPATIENT CLINIC,HELIPORT,MELBOURNE,BREVARD,FL,ASO,03321.06*H,N,PR,PR,28.2547305556,-80.7439416667
NORTH BAY HOSPITAL,HELIPORT,NEW PORT RICHEY,PASCO,FL,ASO,03385.06*H,N,PR,PR,28.2555555556,-82.7138888889
BURNTWOOD RANCH,AIRPORT,LAKELAND,POLK,FL,ASO,03281.21*A,N,PR,PR,28.2580555556,-81.9305555556
STOUT,AIRPORT,KISSIMMEE,OSCEOLA,FL,ASO,03267.3*A,N,PR,PR,28.2586233333,-81.3839594444
INDIO-FAITH,AIRPORT,CARRIZO SPRINGS,MAVERICK,TX,ASW,23559.13*A,N,PR,PR,28.2628472222,-100.1623055556
DENTONIO RANCH,AIRPORT,CARRIZO SPRINGS,DIMMIT,TX,ASW,23559.11*A,N,PR,PR,28.2694377778,-99.9345002778
OSCEOLA SHERIFF'S OFC - BRONSON HWY,HELIPORT,KISSIMMEE,OSCEOLA,FL,ASO,03267.125*H,N,PR,PR,28.2751000000,-81.3365000000
GATOR LAKE,HELIPORT,ZEPHYRHILLS,PASCO,FL,ASO,03577.1*H,N,PR,PR,28.2766725000,-82.3206430556
MELLON RANCH,AIRPORT,REFUGIO,REFUGIO,TX,ASW,24605.2*A,N,PR,PR,28.2808400000,-97.2113808333
HIDDEN LAKE,AIRPORT,NEW PORT RICHEY,PASCO,FL,ASO,03385.02*A,N,PR,PR,28.2825080556,-82.6456544444
SAN PEDRO RANCH,AIRPORT,CARRIZO SPRINGS,DIMMIT,TX,ASW,23559.2*A,N,PR,PR,28.2836030556,-100.0670052778
KISSIMMEE,SEAPLANE BASE,KISSIMMEE,OSCEOLA,FL,ASO,03267.*C,N,PR,PR,28.2836225000,-81.4089597222
KISSIMMEE GATEWAY,AIRPORT,ORLANDO,OSCEOLA,FL,ASO,03407.2*A,Y,PU,PU,28.2898055556,-81.4370833333
COLE'S,SEAPLANE BASE,KISSIMMEE,OSCEOLA,FL,ASO,03267.04*C,N,PR,PR,28.2911111111,-81.3872222222
ROOKE FIELD,AIRPORT,REFUGIO,REFUGIO,TX,ASW,24605.*A,N,PU,PR,28.2936169444,-97.3230483333
ROCKLEDGE,AIRPORT,ROCKLEDGE,BREVARD,FL,ASO,03463.4*A,N,PR,PR,28.2983416667,-80.7186650000
OSCEOLA RGNL HOSPITAL,HELIPORT,KISSIMMEE,OSCEOLA,FL,ASO,03267.02*H,N,PR,PR,28.2986219444,-81.4109041667
BRIGGS RANCH,AIRPORT,CATARINA,DIMMIT,TX,ASW,23575.*A,N,PR,PR,28.3002716667,-99.5669875000
MEMORIAL HOSPITAL,HELIPORT,REFUGIO,REFUGIO,TX,ASW,24605.11*H,N,PR,PU,28.3063911111,-97.7969430556
AMERICA'S CHOPPER PILOTS,HELIPORT,KISSIMMEE,OSCEOLA,FL,ASO,03267.13*H,N,PR,PR,28.3116772222,-81.4650722222
CIG 804,HELIPORT,REFUGIO,REFUGIO,TX,ASW,24605.1*H,N,PR,PR,28.3136163889,-97.0455461111
FLORIDA HOSPITAL KISSIMMEE,HELIPORT,KISSIMMEE,OSCEOLA,FL,ASO,03267.06*H,N,PR,PR,28.3152880556,-81.4059041667
RANCHO ECANTADO,AIRPORT,COTULLA,DIMMIT,TX,ASW,23667.05*A,N,PR,PR,28.3213888889,-99.4500000000
CELEBRATION HEALTH HOSPITAL,HELIPORT,CELEBRATION,OSCEOLA,FL,ASO,03103.*H,N,PR,PR,28.3291666667,-81.5425000000
PILOT COUNTRY,AIRPORT,BROOKSVILLE,PASCO,FL,ASO,03083.01*A,N,PU,PR,28.3302827778,-82.4964847222
ROBINESTTE,SEAPLANE BASE,ST CLOUD,ALACHUA,FL,ASO,03471.02*C,N,PR,PR,28.3330000000,-81.2500000000
ORLANDO HYATT HOUSE,HELIPORT,KISSIMMEE,OSCEOLA,FL,ASO,03267.03*H,N,PR,PR,28.3338983333,-81.5347952778
MAGIC AIR ADVENTURE,HELIPORT,KISSIMMEE,OSCEOLA,FL,ASO,03267.6*H,N,PR,PR,28.3341666667,-81.4891666667
GOLD EAGLE HELICOPTERS INC,HELIPORT,KISSIMMEE,OSCEOLA,FL,ASO,03267.5*H,N,PR,PR,28.3347222222,-81.5013888889
WUESTHOFF HOSPITAL EMERGENCY,HELIPORT,ROCKLEDGE,BREVARD,FL,ASO,03463.41*H,N,PR,PR,28.3361177778,-80.7303316667
FOUR POINTS SHERATON LAKESIDE,HELIPORT,KISSIMMEE,OSCEOLA,FL,ASO,03267.07*H,N,PR,PR,28.3394536111,-81.5953516667
MERRITT ISLAND,AIRPORT,MERRITT ISLAND,BREVARD,FL,ASO,03323.*A,N,PU,PU,28.3416111111,-80.6854722222
FLY HIGH,HELIPORT,KISSIMMEE,POLK,FL,ASO,03115.03*H,N,PR,PR,28.3458333333,-81.6644444444
EPCOT CENTER,ULTRALIGHT,LAKE BUENA VISTA,OSCEOLA,FL,ASO,03275.*U,N,PR,PR,28.3530644444,-81.5470175000
MILLER RANCH,AIRPORT,CARRIZO SPRINGS,DIMMIT,TX,ASW,23559.12*A,N,PR,PR,28.3549916667,-99.9331675000
CHASE FIELD INDUSTRIAL,AIRPORT,BEEVILLE,BEE,TX,ASW,23418.25*A,N,PR,PU,28.3600000000,-97.6600000000
CAPE CANAVERAL HOSPITAL,HELIPORT,COCOA BEACH,BREVARD,FL,ASO,03121.13*H,N,PR,PR,28.3611111111,-80.6222222222
BEEVILLE MUNI,AIRPORT,BEEVILLE,BEE,TX,ASW,23418.2*A,N,PU,PU,28.3618701389,-97.7910295556
RGNL MEDICAL CENTER BAYONET POINT,HELIPORT,NEW PORT RICHEY,PASCO,FL,ASO,03385.04*H,N,PR,PR,28.3622222222,-82.6883333333
LIVE OAK COUNTY,AIRPORT,GEORGE WEST,LIVE OAK,TX,ASW,23934.61*A,N,PU,PU,28.3628040278,-98.1164685000
GRAND CYPRESS RESORT,HELIPORT,KISSIMMEE,ORANGE,FL,ASO,03267.01*H,N,PR,PR,28.3813966667,-81.5131280556
BEEFMASTER'S BEST,AIRPORT,THREE RIVERS,LIVE OAK,TX,ASW,24920.84*A,N,PR,PR,28.3955522222,-98.2208411111
PAISANO RANCH,AIRPORT,CALLIHAM,MC MULLEN,TX,ASW,23538.4*A,N,PR,PR,28.3969405556,-98.3627891667
DIAMOND H RANCH,AIRPORT,CATARINA,DIMMIT,TX,ASW,23575.2*A,N,PR,PR,28.4002672222,-99.5586547222
TRANQUILITY PAD,HELIPORT,DADE CITY,PASCO,FL,ASO,03140.03*H,N,PR,PR,28.4013611111,-82.2426111111
SEMINOLE LAKE,GLIDERPORT,GROVELAND,LAKE,FL,ASO,03221.11*G,N,PR,PR,28.4058386111,-81.8378552778
DUSTY AIRPATCH,AIRPORT,DADE CITY,PASCO,FL,ASO,03140.02*A,N,PR,PR,28.4130555556,-82.2234166667
"BROOKSVILLE INTL AIRWAYS, INC.",HELIPORT,ORLANDO,ORANGE,FL,ASO,03406.36*H,N,PR,PR,28.4238888889,-81.4597222222
MIDSTREAM PORT O'CONNOR,HELIPORT,PORT O'CONNOR,CALHOUN,TX,ASW,24544.07*H,N,PR,PR,28.4263888889,-96.4494444444
DR. P. PHILLIPS HOSPITAL,HELIPORT,ORLANDO,ORANGE,FL,ASO,03406.24*H,N,PR,PR,28.4286172222,-81.4772941667
ORLANDO INTL,AIRPORT,ORLANDO,ORANGE,FL,ASO,03407.*A,Y,PU,PU,28.4293936111,-81.3089930556
PORT O'CONNOR PRIVATE,AIRPORT,PORT O'CONNOR,CALHOUN,TX,ASW,24544.02*A,N,PR,PR,28.4297247222,-96.4444191667
SAND LAKE,SEAPLANE BASE,ORLANDO/BUENA VISTA,ORANGE,FL,ASO,03406.1*C,N,PR,PR,28.4336172222,-81.4914611111
AIR ORLANDO,HELIPORT,ORLANDO,ORANGE,FL,ASO,03406.20*H,N,PR,PR,28.4355613889,-81.4731275000
PHI,HELIPORT,PORT O'CONNOR,CALHOUN,TX,ASW,24544.04*H,N,PR,PR,28.4397241667,-96.4349744444
AIR LOGISTICS,HELIPORT,PORT O'CONNER,CALHOUN,TX,ASW,24544.05*H,N,PR,PR,28.4397241667,-96.4196963889
BROWN RANCH,AIRPORT,BEEVILLE,BEE,TX,ASW,23418.31*A,N,PR,PR,28.4419411111,-97.8044433333
HHI-PORT O'CONNOR,HELIPORT,PORT O'CONNOR,CALHOUN,TX,ASW,24544.011*H,N,PR,PR,28.4425019444,-96.4252519444
INDUSTRIAL HELICOPTERS INC,HELIPORT,PORT O'CONNOR,CALHOUN,TX,ASW,24544.06*H,N,PR,PR,28.4450000000,-96.4483333333
TREASURE LAGOON,SEAPLANE BASE,COCOA,BREVARD,FL,ASO,03120.13*C,N,PR,PR,28.4475000000,-80.7223611111
GLASS RANCH,AIRPORT,CARRIZO SPRINGS,MAVERICK,TX,ASW,23559.1*A,N,PR,PR,28.4502641667,-100.1503422222
TWO J'S FLYING RANCH,AIRPORT,DADE CITY,PASCO,FL,ASO,03140.01*A,N,PR,PR,28.4525000000,-82.2077777778
CUB HAVEN,AIRPORT,DADE CITY,PASCO,FL,ASO,03140.*A,N,PR,PR,28.4533333333,-82.2150000000
COTULLA-LA SALLE COUNTY,AIRPORT,COTULLA,LA SALLE,TX,ASW,23667.*A,N,PU,PU,28.4566944444,-99.2183333333
PIERCE FIELD,AIRPORT,PORT O'CONNOR,MATAGORDA,TX,ASW,24544.*A,N,PR,PR,28.4586111111,-96.2919444444
LAKE CONWAY SOUTH,SEAPLANE BASE,BELLE ISLE,ORANGE,FL,ASO,03055.3*C,N,PR,PR,28.4586111111,-81.3497222222
HELICOPTERS INTL,HELIPORT,ORLANDO,ORANGE,FL,ASO,03406.39*H,N,PR,PR,28.4643972222,-81.4599666667
CAPE CANAVERAL AFS SKID STRIP,AIRPORT,COCOA BEACH,BREVARD,FL,ASO,03121.12*A,Y,PR,MA,28.4676666667,-80.5668333333
PORT O'CONNOR BASE (EHI),HELIPORT,PORT O'CONNOR,CALHOUN,TX,ASW,24544.03*H,N,PR,PR,28.4697236111,-96.4919200000
HERNANDO COUNTY,AIRPORT,BROOKSVILLE,HERNANDO,FL,ASO,03083.*A,N,PU,PU,28.4736111111,-82.4554166667
WHATLEY FLYING SERVICE,AIRPORT,SEADRIFT,CALHOUN,TX,ASW,24755.7*A,N,PR,PR,28.4780563889,-96.7619272222
HI-ACRES,AIRPORT,CLERMONT,LAKE,FL,ASO,03115.02*A,N,PR,PR,28.4786144444,-81.7145197222
LAKE CONWAY NORTH,SEAPLANE BASE,ORLANDO,ORANGE,FL,ASO,03406.*C,N,PR,PR,28.4791705556,-81.3675697222
MEYER,HELIPORT,ORLANDO,ORANGE,FL,ASO,03406.18*H,N,PR,PR,28.5013922222,-81.4442377778
ORANGE COUNTY SHERIFF'S OFFICE,HELIPORT,ORLANDO,ORANGE,FL,ASO,03408.4*H,N,PR,PU,28.5075030556,-81.4134038889
KINGS FIELD,AIRPORT,CLERMONT,LAKE,FL,ASO,03115.*A,N,PR,PR,28.5086111111,-81.8002777778
SPACE COAST RGNL,AIRPORT,TITUSVILLE,BREVARD,FL,ASO,03532.*A,Y,PU,PU,28.5148000000,-80.7992277778
YELVINGTON,HELIPORT,ORLANDO,ORANGE,FL,ASO,03406.3*H,N,PR,PR,28.5186136111,-81.3831255556
DIMMIT COUNTY,AIRPORT,CARRIZO SPRINGS,DIMMIT,TX,ASW,23560.*A,N,PU,PU,28.5222500000,-99.8236388889
ARNOLD PALMER HOSPITAL,HELIPORT,ORLANDO,ORANGE,FL,ASO,03406.31*H,N,PR,PR,28.5225025000,-81.3803477778
ORLANDO RGNL MEDICAL CENTER,HELIPORT,ORLANDO,ORANGE,FL,ASO,03406.21*H,N,PR,PR,28.5252802778,-81.3770141667
OSBORN AIRFIELD,AIRPORT,GROVELAND,LAKE,FL,ASO,03221.1*A,N,PR,PR,28.5266663889,-81.8748000000
LAKE HIAWASSEE,SEAPLANE BASE,ORLANDO,ORANGE,FL,ASO,03406.33*C,N,PR,PR,28.5291694444,-81.4809055556
BIG DUKE'S PLACE,AIRPORT,INDIANOLA,CALHOUN,TX,ASW,24096.2*A,N,PR,PR,28.5302775000,-96.5274758333
SHEETS,AIRPORT,GROVELAND,LAKE,FL,ASO,03221.*A,N,PR,PR,28.5328666667,-81.8467166667
FLORIDA HOSPITAL EAST ORLANDO,HELIPORT,ORLANDO,ORANGE,FL,ASO,03406.22*H,N,PR,PR,28.5407500000,-81.2808333333
EXECUTIVE,AIRPORT,ORLANDO,ORANGE,FL,ASO,03408.*A,Y,PU,PU,28.5454722222,-81.3329166667
HEALTH CENTRAL,HELIPORT,OCOEE,ORANGE,FL,ASO,03394.62*H,N,PR,PR,28.5505555556,-81.5280555556
PRINCETON HOSPITAL,HELIPORT,ORLANDO,ORANGE,FL,ASO,03406.113*H,N,PR,PR,28.5683344444,-81.4339597222
TANNER'S,AIRPORT,PORT LAVACA,CALHOUN,TX,ASW,24542.*A,N,PR,PR,28.5697202778,-96.6297005556
FLORIDA HOSPITAL,HELIPORT,ORLANDO,ORANGE,FL,ASO,03406.11*H,N,PR,PR,28.5755561111,-81.3684025000
GREEN LAKE RANCH,AIRPORT,BLOOMINGTON,CALHOUN,TX,ASW,23445.2*A,N,PR,PR,28.5836088889,-96.8544291667
RYBOLT RANCH,AIRPORT,ORLANDO,ORANGE,FL,ASO,03406.14*A,N,PR,PR,28.5894436111,-81.1442302778
TIMBERLACHEN,SEAPLANE BASE,ORLANDO,ORANGE,FL,ASO,03406.38*C,N,PR,PR,28.5927777778,-81.4038888889
KO-KEE,AIRPORT,BUSHNELL,SUMTER,FL,ASO,03093.09*A,N,PR,PR,28.5949941667,-82.1498075000
PRICE RANCH,AIRPORT,BIG WELLS,DIMMIT,TX,ASW,23439.62*A,N,PR,PR,28.5960930556,-99.5714344444
KENNEDY,SEAPLANE BASE,GROVELAND,LAKE,FL,ASO,03221.2*C,N,PR,PR,28.6030527778,-81.8495222222
GOLIAD COUNTY INDUSTRIAL AIRPARK,AIRPORT,BERCLAIR,GOLIAD,TX,ASW,23431.01*A,N,PU,PU,28.6084638889,-97.6095416667
WKMG-TV,HELIPORT,ORLANDO,ORANGE,FL,ASO,03406.34*H,N,PR,PR,28.6102777778,-81.4194444444
CHINSEGUT,AIRPORT,BROOKSVILLE,HERNANDO,FL,ASO,03083.03*A,N,PR,PR,28.6116586111,-82.3678705556
WESH-TV CHANNEL 2,HELIPORT,EATONVILLE,ORANGE,FL,ASO,03170.5*H,N,PR,PR,28.6124994444,-81.3856250000
NASA SHUTTLE LANDING FACILITY,AIRPORT,TITUSVILLE,BREVARD,FL,ASO,03531.3*A,Y,PR,PU,28.6148944722,-80.6943731111
CARTER,AIRPORT,APOPKA,ORANGE,FL,ASO,03027.11*A,N,PR,PR,28.6188883333,-81.5086833333
TORTUGA RANCH,AIRPORT,BRUNDAGE,DIMMIT,TX,ASW,23503.6*A,N,PR,PR,28.6193222222,-99.6543638889
ARTHUR DUNN AIR PARK,AIRPORT,TITUSVILLE,BREVARD,FL,ASO,03531.*A,N,PU,PU,28.6225516667,-80.8354096944
CIG 806,HELIPORT,PORT LAVACA,CALHOUN,TX,ASW,24542.02*H,N,PR,PR,28.6249963889,-96.6835905556
FLORIDA FLYING GATORS,ULTRALIGHT,MINNEOLA,LAKE,FL,ASO,03354.11*U,N,PR,PR,28.6277747222,-81.8028550000
COMANCHE RANCH,AIRPORT,EAGLE PASS,MAVERICK,TX,ASW,23793.1*A,N,PR,PR,28.6280361111,-100.1589541667
HOSPITAL,HELIPORT,TITUSVILLE,BREVARD,FL,ASO,03531.4*H,N,PR,PR,28.6294402778,-80.8219983333
RINGHAVER,HELIPORT,BROOKSVILLE,HERNANDO,FL,ASO,03083.02*H,N,PR,PR,28.6316575000,-82.4223166667
CONNELL'S WAHOO,AIRPORT,BUSHNELL,SUMTER,FL,ASO,03093.04*A,N,PR,PR,28.6319444444,-82.1577777778
GRASS ROOTS AIRPARK,AIRPORT,MASCOTTE,LAKE,FL,ASO,03319.6*A,N,PR,PR,28.6416666667,-81.8850000000
GRASS PATCH,AIRPORT,BUSHNELL,SUMTER,FL,ASO,03093.11*A,N,PR,PR,28.6455472222,-82.2189750000
MC DONALD RANCH,AIRPORT,DILLEY,FRIO,TX,ASW,23767.*A,N,PR,PR,28.6510911111,-99.2886469444
CALHOUN COUNTY,AIRPORT,PORT LAVACA,CALHOUN,TX,ASW,24542.2*A,N,PU,PU,28.6533055556,-96.6827222222
PRAIRIE LAKE PVT RES SP MOORING FACILITY,SEAPLANE BASE,ALTAMONTE SPRINGS,SEMINOLE,FL,ASO,03015.*C,N,PR,PR,28.6566644444,-81.3534016667
PARADISE LANDING,SEAPLANE BASE,ALTAMONTE SPRINGS,SEMINOLE,FL,ASO,03015.02*C,N,PR,PR,28.6575000000,-81.3825000000
FLORIDA HOSPITAL-ALTAMONTE,HELIPORT,ALTAMONTE SPRINGS,SEMINOLE,FL,ASO,03015.1*H,N,PR,PR,28.6663863889,-81.3706241667
BIG OAKS RANCH,AIRPORT,CHULUOTA,SEMINOLE,FL,ASO,03109.41*A,N,PR,PR,28.6669408333,-81.0845058333
TEX MERRITT PRIVATE AIRSTRIP,AIRPORT,LEESBURG,LAKE,FL,ASO,03295.5*A,N,PR,PR,28.6677719444,-81.9181355556
CHERYL-LANE LANDINGS,AIRPORT,BUSHNELL,SUMTER,FL,ASO,03093.01*A,N,PR,PR,28.6711036111,-82.0873066667
STERLING,AIRPORT,PORT LAVACA,CALHOUN,TX,ASW,24542.04*A,N,PR,PR,28.6799472222,-96.6608972222
LOMA DE COMETA,AIRPORT,COMETA,ZAVALA,TX,ASW,23640.05*A,N,PR,PR,28.6819444444,-100.0241666667
FLYING W AIRRANCH,AIRPORT,BUSHNELL,SUMTER,FL,ASO,03093.1*A,N,PR,PR,28.6836022222,-82.1575866667
74 RANCH,AIRPORT,CAMPBELLTON,ATASCOSA,TX,ASW,23543.51*A,N,PR,PR,28.6853833333,-98.3831166667
DILLEY AIRPARK,AIRPORT,DILLEY,FRIO,TX,ASW,23767.11*A,N,PU,PU,28.6855000000,-99.1890833333
PORTER RANCH,AIRPORT,BURNELL,KARNES,TX,ASW,23522.*A,N,PR,PR,28.6899858333,-97.7602769444
CRYSTAL CITY MUNI,AIRPORT,CRYSTAL CITY,ZAVALA,TX,ASW,23684.*A,N,PU,PU,28.6975555556,-99.8176666667
ORLANDO APOPKA,AIRPORT,APOPKA,ORANGE,FL,ASO,03027.12*A,N,PU,PR,28.7074744167,-81.5819645000
CHACON CREEK RANCH,AIRPORT,CRYSTAL CITY,ZAVALA,TX,ASW,23684.12*A,N,PR,PR,28.7085891667,-100.0072822222
FORT DUNCAN MEDICAL CENTER,HELIPORT,EAGLE PASS,MAVERICK,TX,ASW,23793.02*H,N,PR,PR,28.7121166667,-100.4568527778
WOLF POINT,HELIPORT,OLIVIA,CALHOUN,TX,ASW,24436.*H,N,PR,PR,28.7131666667,-96.4091666667
FERGUSON,SEAPLANE BASE,WINTER SPRINGS,SEMINOLE,FL,ASO,03572.*C,N,PR,PR,28.7147180556,-81.2700658333
WAGNER,HELIPORT,PALACIOS,MATAGORDA,TX,ASW,24462.01*H,N,PR,PR,28.7163788889,-96.2141333333
WINN EXPLORATION CO. INC,AIRPORT,EAGLE PASS,MAVERICK,TX,ASW,23793.01*A,N,PR,PR,28.7169211111,-100.4086844444
LAKE JESSUP,SEAPLANE BASE,OVIEDO,SEMINOLE,FL,ASO,03414.1*C,N,PR,PR,28.7169397222,-81.2331200000
PICOSA RANCH,AIRPORT,CRYSTAL CITY,ZAVALA,TX,ASW,23684.01*A,N,PR,PR,28.7197000000,-100.0545066667
MATAGORDA SHORE FACILITY,HELIPORT,MATAGORDA,MATAGORDA,TX,ASW,24315.11*H,N,PR,PR,28.7213750000,-95.8738502778
ORLANDO NORTH AIRPARK,AIRPORT,ZELLWOOD,ORANGE,FL,ASO,03575.6*A,N,PR,PR,28.7263833333,-81.6509083333
PALACIOS MUNI,AIRPORT,PALACIOS,MATAGORDA,TX,ASW,24462.*A,N,PU,PU,28.7275000000,-96.2509444444
SOUTHERLAND STRIP,AIRPORT,GENEVA,SEMINOLE,FL,ASO,03212.*A,N,PR,PR,28.7327716667,-81.0786716667
BOB WHITE FIELD,AIRPORT,ZELLWOOD,ORANGE,FL,ASO,03575.5*A,N,PU,PR,28.7352722222,-81.6291166667
TRULL,AIRPORT,PALACIOS,MATAGORDA,TX,ASW,24461.21*A,N,PR,PR,28.7391558333,-96.2191333333
SAN CHRISTOVAL RANCH,AIRPORT,PAWNEE,KARNES,TX,ASW,24486.8*A,N,PR,PR,28.7486666667,-98.0455277778
TANGERINE,AIRPORT,ZELLWOOD,ORANGE,FL,ASO,03575.62*A,N,PR,PR,28.7602713889,-81.6059069444
TRADEWINDS AERODROME,AIRPORT,SCOTTSMOOR,BREVARD,FL,ASO,03486.*A,N,PR,PR,28.7641583333,-80.8539425000
SEAREY CENTRAL,SEAPLANE BASE,TAVARES,LAKE,FL,ASO,03525.01*C,N,PR,PR,28.7661111111,-81.7461111111
FLYING G,AIRPORT,CRYSTAL CITY,ZAVALA,TX,ASW,23684.11*A,N,PR,PR,28.7669205556,-100.0828408333
KUBECKA AVIATION,AIRPORT,PALACIOS,MATAGORDA,TX,ASW,24461.22*A,N,PR,PR,28.7672111111,-96.3069130556
MONTGOMERY'S FLYING M RANCH,AIRPORT,LAKE PANASOFFKEE,SUMTER,FL,ASO,03284.5*A,N,PR,PR,28.7735994444,-82.1303647222
ORLANDO SANFORD INTL,AIRPORT,ORLANDO,SEMINOLE,FL,ASO,03407.1*A,Y,PU,PU,28.7766944444,-81.2355277778
RICHARD KOHLER,HELIPORT,OSTEEN,VOLUSIA,FL,ASO,03412.*H,N,PR,PR,28.7805555556,-81.1152777778
CEDAR KNOLL FLYING RANCH,AIRPORT,GENEVA,SEMINOLE,FL,ASO,03212.1*A,N,PR,PR,28.7819361111,-81.1592277778
ARROW 'S' RANCH,AIRPORT,CAMBELLTON,ATASCOSA,TX,ASW,23543.5*A,N,PR,PR,28.7835913889,-98.3191780556
ALLIGATOR DRINK,SEAPLANE BASE,GENEVA,SEMINOLE,FL,ASO,03212.2*C,N,PR,PR,28.7877694444,-81.1642277778
CARD AIRFIELD,AIRPORT,KENEDY,KARNES,TX,ASW,24149.12*A,N,PR,PR,28.7891666667,-97.7633888889
SOUTH TEXAS PROJECT,HELIPORT,PALACIOS,MATAGORDA,TX,ASW,24461.23*H,N,PR,PR,28.7922222222,-96.0419444444
FLYING BARON ESTATES,AIRPORT,LEESBURG,LAKE,FL,ASO,03294.11*A,N,PR,PR,28.7974894444,-81.9359150000
JAY KAY RANCH,AIRPORT,PEARSALL,FRIO,TX,ASW,24491.2*A,N,PR,PR,28.8002536111,-99.0003086111
TAVARES,SEAPLANE BASE,TAVARES,LAKE,FL,ASO,03525.*C,N,PU,PU,28.8005555556,-81.7277777778
ONE O'CONNOR PLAZA-TOWER,HELIPORT,VICTORIA,VICTORIA,TX,ASW,24971.03*H,N,PR,PR,28.8011008333,-97.0058205556
VICTORIA BANK & TRUST MOTOR GARAGE,HELIPORT,VICTORIA,VICTORIA,TX,ASW,24972.3*H,N,PR,PR,28.8030450000,-97.0058205556
INVERNESS,AIRPORT,INVERNESS,CITRUS,FL,ASO,03249.*A,N,PU,PU,28.8036125000,-82.3182466667
L R M C EMERGENCY HELISTOP,HELIPORT,LEESBURG,LAKE,FL,ASO,03295.*H,N,PR,PR,28.8083230556,-81.8670244444
FREEFLIGHT INTL,AIRPORT,COLEMAN,SUMTER,FL,ASO,03121.8*A,N,PR,PR,28.8110988889,-82.0653633333
CENTRAL FLORIDA REGIONAL HOSPITAL,HELIPORT,SANFORD,SEMINOLE,FL,ASO,03481.02*H,N,PR,PR,28.8136805556,-81.2837305556
CITIZENS MEDICAL CENTER,HELIPORT,VICTORIA,VICTORIA,TX,ASW,24971.02*H,N,PR,PR,28.8141558333,-96.9763752778
H & F PROPERTIES,AIRPORT,CRYSTAL CITY,ZAVALA,TX,ASW,23684.21*A,N,PR,PR,28.8149747222,-99.7581091667
MC KINLEY FIELD,AIRPORT,PEARSALL,FRIO,TX,ASW,24491.1*A,N,PU,PR,28.8222500000,-99.1090277778
SANFORD,SEAPLANE BASE,SANFORD,SEMINOLE,FL,ASO,03481.01*C,N,PR,PR,28.8227777778,-81.2633333333
LEESBURG INTL,AIRPORT,LEESBURG,LAKE,FL,ASO,03298.*A,Y,PU,PU,28.8228975000,-81.8084172778
KARNES COUNTY,AIRPORT,KENEDY,KARNES,TX,ASW,24149.11*A,N,PU,PU,28.8249856944,-97.8655683333
MID FLORIDA AIR SERVICE,AIRPORT,EUSTIS,LAKE,FL,ASO,03180.01*A,N,PU,PR,28.8433333333,-81.6300833333
RINGHAVER,HELIPORT,RIVERVIEW,HILLSBOROUGH,FL,ASO,03463.01*H,N,PR,PR,28.8466502778,-82.3453719444
OTTO KAISER HOSPITAL,HELIPORT,KENEDY,KARNES,TX,ASW,24149.13*H,N,PR,PU,28.8502563889,-97.8788905556
WHITES,AIRPORT,LA WARD,JACKSON,TX,ASW,24196.*A,N,PR,PR,28.8516547222,-96.4974727778
VICTORIA RGNL,AIRPORT,VICTORIA,VICTORIA,TX,ASW,24971.*A,Y,PU,PU,28.8525458333,-96.9184887222
DETAR HOSPITAL - NAVARRO CAMPUS,HELIPORT,VICTORIA,VICTORIA,TX,ASW,24971.06*H,N,PR,PR,28.8545194444,-97.0205055556
POST OAK RANCH,AIRPORT,CRYSTAL RIVER,CITRUS,FL,ASO,03135.2*A,N,PR,PR,28.8558144444,-82.5525997222
MAVERICK COUNTY MEMORIAL INTL,AIRPORT,EAGLE PASS,MAVERICK,TX,ASW,23794.*A,N,PU,PU,28.8570927778,-100.5134677778
BLUE RIDGE FLIGHTPARK,AIRPORT,OAKHILL,VOLUSIA,FL,ASO,03391.01*A,N,PR,PR,28.8572116667,-80.9069988889
CRYSTAL RIVER,AIRPORT,CRYSTAL RIVER,CITRUS,FL,ASO,03135.*A,N,PU,PU,28.8679416667,-82.5740058056
FLYING-H,AIRPORT,FRUITLAND PARK,LAKE,FL,ASO,03206.41*A,N,PR,PR,28.8760983333,-81.8889700000
FLYING PALOMINO RANCH,AIRPORT,FRUITLAND PARK,LAKE,FL,ASO,03206.4*A,N,PR,PR,28.8780422222,-81.9409158333
CHAPARROSA RANCH,AIRPORT,LA PRYOR,ZAVALA,TX,ASW,24191.01*A,N,PR,PR,28.8794166667,-99.9906166667
SIERRA AIRPARK,ULTRALIGHT,WORTHINGTON SPRINGS,UNION,FL,ASO,03573.5*U,N,PR,PR,28.8822222222,-82.4297222222
BURRIS RANCH,AIRPORT,KARNES CITY,KARNES,TX,ASW,24138.*A,N,PR,PR,28.8877541667,-98.0502827778
BALL,AIRPORT,VICTORIA,VICTORIA,TX,ASW,24974.*A,N,PR,PR,28.8877636111,-97.0210980556
HIGHLANDER,AIRPORT,OAK HILL,VOLUSIA,FL,ASO,03391.*A,N,PR,PR,28.8880441667,-80.8664422222
FRIO RGNL HOSPITAL,HELIPORT,PEARSALL,FRIO,TX,ASW,24491.11*H,N,PR,PR,28.8972222222,-99.1172222222
BRITT BROWN & PORTER RANCH,AIRPORT,EUSTIS,LAKE,FL,ASO,03180.04*A,N,PR,PR,28.9049886111,-81.4331233333
FLORIDA HOSPITAL-FISH MEMORIAL,HELIPORT,ORANGE CITY,VOLUSIA,FL,ASO,03402.*H,N,PR,PR,28.9147222222,-81.2847222222
WESTWIND RANCH,AIRPORT,LA PRYOR,ZAVALA,TX,ASW,24191.*A,N,PR,PR,28.9208000000,-99.7561500000
M-I DRILLING FLUIDS COMPANY,HELIPORT,FREEPORT,BRAZORIA,TX,ASW,23904.15*H,N,PR,PR,28.9238597222,-95.3418836111
UMATILLA MUNI,AIRPORT,UMATILLA,LAKE,FL,ASO,03533.3*A,N,PU,PU,28.9242208333,-81.6518125000
AGRICULTURAL SUPPLIES,AIRPORT,PEARSALL,FRIO,TX,ASW,24491.4*A,N,PR,PR,28.9294144444,-99.0803102778
SOUTH TEXAS RGNL HOSPITAL,HELIPORT,JOURDANTON,ATASCOSA,TX,ASW,24133.4*H,N,PR,PR,28.9333055556,-98.5244611111
BRADSHAW FARM,AIRPORT,DELAND,LAKE,FL,ASO,03156.1*A,N,PR,PR,28.9485980556,-81.4131222222
HAHNS,AIRPORT,EDNA,JACKSON,TX,ASW,23808.01*A,N,PR,PR,28.9488730556,-96.5496958333
GO HELITRANS,HELIPORT,FREEPORT,BRAZORIA,TX,ASW,23904.2*H,N,PR,PR,28.9497222222,-95.3572222222
E-8 TANK BATTERY,SEAPLANE BASE,VENICE,PLAQUEMINES,LA,ASW,07763.32*C,N,PR,PR,28.9502361111,-89.3878261111
W D CORNELIUS RANCH,AIRPORT,MARKHAM,MATAGORDA,TX,ASW,24298.5*A,N,PR,PR,28.9502583333,-96.0599602778
FEHMEL DUSTING SERVICE,AIRPORT,BAY CITY,MATAGORDA,TX,ASW,23409.5*A,N,PU,PR,28.9524797222,-95.9735691667
PLEASANTON MUNI,AIRPORT,PLEASANTON,ATASCOSA,TX,ASW,24525.11*A,N,PU,PU,28.9541894444,-98.5199847222
S & S AVION RANCH,AIRPORT,OXFORD,SUMTER,FL,ASO,03415.*A,N,PR,PR,28.9591666667,-82.1341666667
CRYSTAL RIVER POWER PLANT,HELIPORT,CRYSTAL RIVER,CITRUS,FL,ASO,03135.12*H,N,PR,PR,28.9594444444,-82.6930555556
NASH RANCH,AIRPORT,BATESVILLE,FRIO,TX,ASW,23406.1*A,N,PR,PR,28.9616666667,-99.3852777778
LOVE FIELD,AIRPORT,WEIRSDALE,MARION,FL,ASO,03549.1*A,N,PR,PR,28.9619286111,-81.8914708333
LEFFLER,AIRPORT,ALAMANA,VOLUSIA,FL,ASO,03014.*A,N,PR,PR,28.9635980556,-81.1214475000
HERCULES MARINE SERVICES CORP,HELIPORT,FREEPORT,BRAZORIA,TX,ASW,23904.1*H,N,PR,PR,28.9663888889,-95.2905555556
MIDSTREAM FREEPORT,HELIPORT,FREEPORT,BRAZORIA,TX,ASW,23904.11*H,N,PR,PR,28.9716666667,-95.2830555556
BAY CITY MUNI,AIRPORT,BAY CITY,MATAGORDA,TX,ASW,23409.4*A,N,PU,PU,28.9732500000,-95.8634444444
HOBBY HILL,AIRPORT,WEIRSDALE,MARION,FL,ASO,03549.11*A,N,PR,PR,28.9755388889,-81.9186938889
BUCCANEER SHORE FACILITY,HELIPORT,FREEPORT,BRAZORIA,TX,ASW,23904.17*H,N,PR,PR,28.9769133333,-95.3174375000
TWELVE OAKS,AIRPORT,HERNANDO,CITRUS,FL,ASO,03226.01*A,N,PR,PR,28.9780344444,-82.3637075000
DM RANCH,AIRPORT,BATESVILLE,ZAVALA,TX,ASW,23406.12*A,N,PR,PR,28.9783333333,-99.5630555556
MASSEY RANCH AIRPARK,AIRPORT,NEW SMYRNA BEACH,VOLUSIA,FL,ASO,03387.2*A,N,PU,PR,28.9788755556,-80.9250541667
MATAGORDA RGNL MEDICAL CENTER,HELIPORT,BAY CITY,MATAGORDA,TX,ASW,23409.3*H,N,PR,PR,28.9798888889,-95.9923305556
THE VILLAGES,HELIPORT,BELLEVIEW,MARION,FL,ASO,03055.69*H,N,PR,PR,28.9805555556,-81.9905555556
KUBECKA FLYING SERVICE INC.,AIRPORT,EDNA,JACKSON,TX,ASW,23808.11*A,N,PR,PR,28.9808166667,-96.6219202778
EAGLE AIR PARK,AIRPORT,BRAZORIA,BRAZORIA,TX,ASW,23480.*A,N,PR,PR,28.9821941667,-95.5796691667
CIG 809,HELIPORT,BAY CITY,MATAGORDA,TX,ASW,23409.41*H,N,PR,PR,28.9824791667,-96.0288477778
FLY'N R RANCH,AIRPORT,UMATILLA,MARION,FL,ASO,03533.32*A,N,PR,PR,28.9841508333,-81.8170241667
DRAKE RANCH,AIRPORT,HERNANDO,MARION,FL,ASO,03226.1*A,N,PR,PR,28.9902563889,-82.3303733333
MAURICE DAUWE FARM,AIRPORT,POTEET,ATASCOSA,TX,ASW,24557.1*A,N,PR,PR,29.0002475000,-98.5711294444
JACKSON COUNTY,AIRPORT,EDNA,JACKSON,TX,ASW,23808.1*A,N,PU,PU,29.0009989722,-96.5819621389
NORTON,AIRPORT,BELLEVIEW,MARION,FL,ASO,03055.62*A,N,PR,PR,29.0010916667,-82.1006444444
STATION 24,HELIPORT,MARKHAM,MATAGORDA,TX,ASW,24298.51*H,N,PR,PR,29.0019233333,-96.0669041667
J.R.'S,AIRPORT,CRYSTAL RIVER,CITRUS,FL,ASO,03135.11*A,N,PR,PR,29.0036111111,-82.5552777778
LEMPA,AIRPORT,CUERO,DE WITT,TX,ASW,23690.02*A,N,PR,PR,29.0058127778,-97.3116577778
CHEVRON FOURCHON,HELIPORT,LEEVILLE,LAFOURCHE,LA,ASW,07607.52*H,N,PR,PR,29.0066213889,-90.1950777778
SEVEN FEATHERS,AIRPORT,DUNNELLON,CITRUS,FL,ASO,03169.01*A,N,PR,PR,29.0066388889,-82.4045694444
JORDAN,HELIPORT,BELLEVIEW,MARION,FL,ASO,03055.71*H,N,PR,PR,29.0141483333,-81.9845297222
JORDAN,SEAPLANE BASE,BELLEVIEW,MARION,FL,ASO,03055.72*C,N,PR,PR,29.0141483333,-81.9781405556
MONROE AIRPARK,AIRPORT,BELLEVIEW,MARION,FL,ASO,03055.6*A,N,PR,PR,29.0188691667,-82.1137005556
MC GINLEY,AIRPORT,OCALA,MARION,FL,ASO,03394.01*A,N,PR,PR,29.0260902778,-82.2123150000
JOHARY,AIRPORT,BELLEVIEW,MARION,FL,ASO,03055.63*A,N,PR,PR,29.0263700000,-81.9878633333
BOENING BROTHERS,AIRPORT,FLORESVILLE,WILSON,TX,ASW,23868.01*A,N,PR,PR,29.0271925000,-98.2866775000
DEEP WOODS RANCH,AIRPORT,DELAND,LAKE,FL,ASO,03156.14*A,N,PR,PR,29.0302619444,-81.4470119444
LAKE WEIR,SEAPLANE BASE,OKLAWAHA,MARION,FL,ASO,03397.1*C,N,PR,PR,29.0344258333,-81.9506400000
CHEVRON SOUTHPASS TANK BATTERY W-2,HELIPORT,VENICE,PLAQUEMINES,LA,ASW,07763.16*H,N,PR,PR,29.0416200000,-89.3278277778
HUGHES RANCH,AIRPORT,QUEMADO,MAVERICK,TX,ASW,24586.5*A,N,PR,PR,29.0432977778,-100.5845263889
WEST VOLUSIA MEMORIAL HOSPITAL HELISTOP,HELIPORT,DE LAND,VOLUSIA,FL,ASO,03156.13*H,N,PR,PU,29.0438730556,-81.3178405556
SMITH AVIATION INC,AIRPORT,DANEVANG,WHARTON,TX,ASW,23722.6*A,N,PR,PR,29.0530338889,-96.2621872222
AG AVIATION,AIRPORT,BAY CITY,MATAGORDA,TX,ASW,23409.22*A,N,PR,PR,29.0541430556,-95.9624563889
NEW SMYRNA BEACH MUNI,AIRPORT,NEW SMYRNA BEACH,VOLUSIA,FL,ASO,03387.*A,Y,PU,PU,29.0556944444,-80.9489166667
SHELL CENTRAL FACILITIES,SEAPLANE BASE,VENICE,PLAQUEMINES,LA,ASW,07763.19*C,N,PR,PR,29.0571741667,-89.3028280556
RANCH-AERO,AIRPORT,BIGFOOT,ATASCOSA,TX,ASW,23431.9*A,N,PR,PR,29.0613552778,-98.8003027778
MARION COUNTY,AIRPORT,DUNNELLON,MARION,FL,ASO,03169.*A,N,PU,PU,29.0617777778,-82.3765833333
DELAND MUNI-SIDNEY H TAYLOR FIELD,AIRPORT,DELAND,VOLUSIA,FL,ASO,03156.*A,N,PU,PU,29.0670277778,-81.2837500000
BACK ACHERS,AIRPORT,BELLEVIEW,MARION,FL,ASO,03055.61*A,N,PR,PR,29.0730355556,-81.9995305556
AIR LOGISTICS - FREEPORT,HELIPORT,FREEPORT,BRAZORIA,TX,ASW,23904.19*H,N,PR,PR,29.0752444444,-95.3604938889
GREEN HILL COMPRESSORS,HELIPORT,LEEVILLE,LAFOURCHE,LA,ASW,07607.53*H,N,PR,PR,29.0760638889,-90.2850805556
DUNBAR RANCH,AIRPORT,SPOFFORD,MAVERICK,TX,ASW,24833.21*A,N,PR,PR,29.0760755556,-100.3753525000
SPRUCE CREEK,AIRPORT,DAYTONA BEACH,VOLUSIA,FL,ASO,03147.2*A,N,PR,PR,29.0801666667,-81.0466666667
JOSEPH ROSS SCHERDIN,AIRPORT,RICHWOOD,BRAZORIA,TX,ASW,24610.*A,N,PR,PR,29.0810780556,-95.3827166667
CUERO MUNI,AIRPORT,CUERO,DE WITT,TX,ASW,23690.*A,N,PU,PU,29.0835880556,-97.2669341667
CALAWAY,AIRPORT,GANADO,JACKSON,TX,ASW,23920.*A,N,PR,PR,29.0835900000,-96.5002488889
LEEWARD AIR RANCH,AIRPORT,OCALA/BELLEVIEW,MARION,FL,ASO,03393.2*A,N,PR,PR,29.0841461111,-82.0323097222
LOCKHEED MARTIN-OCALA,HELIPORT,OCALA,MARION,FL,ASO,03393.4*H,N,PR,PR,29.0858138889,-81.9842527778
SHELL CENTRAL FACILITIES E BAY BLOCK 24,HELIPORT,VENICE,PLAQUEMINES,LA,ASW,07763.14*H,N,PR,PR,29.0913394444,-89.3047727778
NORTH EXUMA,AIRPORT,DELAND,VOLUSIA,FL,ASO,03156.15*A,N,PR,PR,29.0949000000,-81.2776000000
SHADY INTL,AIRPORT,OCALA,MARION,FL,ASO,03394.04*A,N,PR,PR,29.0960888889,-82.1789813889
DOBBS RANCH,AIRPORT,YOAKUM,LAVACA,TX,ASW,25070.12*A,N,PR,PR,29.0980330556,-96.9552616667
FOURCHON BASE,HELIPORT,LEEVILLE,LAFOURCHE,LA,ASW,07607.54*H,N,PR,PR,29.1027302778,-90.1853550000
CIRCLE P RANCH,AIRPORT,FLORESVILLE,WILSON,TX,ASW,23868.02*A,N,PR,PR,29.1027444444,-98.2166750000
BOB LEE FLIGHT STRIP,AIRPORT,DELAND,VOLUSIA,FL,ASO,03156.2*A,N,PU,PR,29.1041111111,-81.3141944444
SHERIFF'S SOUTH MULTI DISTRICT OFFICE,HELIPORT,OCALA,MARION,FL,ASO,03394.1*H,N,PR,PR,29.1058111111,-82.0909222222
PETERSON,AIRPORT,OLD OCEAN,BRAZORIA,TX,ASW,24437.01*A,N,PR,PR,29.1080555556,-95.7775000000
FLYING V RANCH,AIRPORT,LOUISE,WHARTON,TX,ASW,24241.5*A,N,PU,PR,29.1082777778,-96.3987777778
TEXAS GULF COAST RGNL,AIRPORT,ANGLETON/LAKE JACKSON,BRAZORIA,TX,ASW,23337.22*A,N,PU,PU,29.1086388889,-95.4620833333
CUERO COMMUNITY HOSPITAL,HELIPORT,CUERO,DE WITT,TX,ASW,23690.01*H,N,PR,PR,29.1133088889,-97.2833230556
PHI FOURCHON BASE,HELIPORT,PORT FOURCHON,LAFOURCHE,LA,ASW,07713.8*H,N,PR,PR,29.1165583333,-90.2047250000
LAUGHLIN AFB AUX NR 1,AIRPORT,SPOFFORD,KINNEY,TX,ASW,24833.11*A,N,PR,MA,29.1185000000,-100.4723333333
RUTHERFORD RANCH,AIRPORT,BUDA,HAYS,TX,ASW,23513.*A,N,PR,PR,30.0777119444,-97.9655627778
RAY FARM,AIRPORT,FLORESVILLE,WILSON,TX,ASW,23868.*A,N,PR,PR,29.1210775000,-98.3655683333
ERA HELICOPTERS FOURCHON HELIBASE,HELIPORT,GRAND ISLE,LAFOURCHE,LA,ASW,07529.21*H,N,PR,PR,29.1232852778,-90.2017444444
WOODS AND LAKES AIRPARK,AIRPORT,OKLAWAHA,MARION,FL,ASO,03397.4*A,N,PR,PR,29.1235902778,-81.8870277778
FLYING DUTCHMAN RANCH,AIRPORT,OCALA,MARION,FL,ASO,03394.02*A,N,PR,PR,29.1308111111,-82.1192555556
WEST BAY,SEAPLANE BASE,VENICE,PLAQUEMINES,LA,ASW,07763.24*C,N,PR,PR,29.1318944444,-89.3881075000
GEORGE T LEWIS,AIRPORT,CEDAR KEY,LEVY,FL,ASO,03102.*A,N,PU,PU,29.1342222222,-83.0504722222
JOHN B CONNALLY RANCH,AIRPORT,FLORESVILLE,WILSON,TX,ASW,23868.011*A,N,PR,PR,29.1357997222,-98.2763997222
DEVINE MUNI,AIRPORT,DEVINE,MEDINA,TX,ASW,23760.1*A,N,PU,PU,29.1383930278,-98.9418897222
PHILLIPS CORPORATION,AIRPORT,ANGLETON,BRAZORIA,TX,ASW,23337.21*A,N,PR,PR,29.1507997222,-95.4952205556
TRADEWIND AG,AIRPORT,EL CAMPO,WHARTON,TX,ASW,23813.4*A,N,PR,PR,29.1627522222,-96.2252411111
DOAN,HELIPORT,SOUTH DAYTONA,VOLUSIA,FL,ASO,03505.3*H,N,PR,PR,29.1655377778,-81.0272777778
FRONTIER,AIRPORT,SPOFFORD,KINNEY,TX,ASW,24833.12*A,N,PR,PR,29.1663502778,-100.4184108333
BAILES,AIRPORT,ANGLETON,BRAZORIA,TX,ASW,23337.2*A,N,PU,PR,29.1666694444,-95.4009277778
COLUMBIA LAKES,HELIPORT,WEST COLUMBIA,BRAZORIA,TX,ASW,25007.2*H,N,PR,PR,29.1680238889,-95.6213350000
LAFAYETTE LANDINGS,AIRPORT,DE LEON SPRINGS,VOLUSIA,FL,ASO,03156.35*A,N,PR,PR,29.1685925000,-81.2647838889
BERNIE LITTLE,HELIPORT,OCALA,MARION,FL,ASO,03393.3*H,N,PR,PR,29.1696972222,-82.1495361111
OCALA INTL-JIM TAYLOR FIELD,AIRPORT,OCALA,MARION,FL,ASO,03394.*A,Y,PU,PU,29.1718767778,-82.2241146389
FRERICH RANCH,AIRPORT,BRACKETTVILLE,KINNEY,TX,ASW,23471.*A,N,PR,PR,29.1719041667,-100.6420291667
FRELS,AIRPORT,EL CAMPO,WHARTON,TX,ASW,23813.8*A,N,PR,PR,29.1791888889,-96.3227361111
DAYTONA BEACH INTL,AIRPORT,DAYTONA BEACH,VOLUSIA,FL,ASO,03147.*A,Y,PU,PU,29.1799166667,-81.0580555556
ANACACHO RANCH,AIRPORT,SPOFFORD,KINNEY,TX,ASW,24833.1*A,N,PR,PR,29.1919058333,-100.2753500000
FENNER RANCH,AIRPORT,CORDELE,JACKSON,TX,ASW,23654.71*A,N,PR,PR,29.1933080556,-96.6891425000
SHERIFF'S OPERATION CENTER,HELIPORT,OCALA,MARION,FL,ASO,03394.08*H,N,PR,PR,29.1933083333,-82.1750916667
NORRIS RAUN RANCH,AIRPORT,EL CAMPO,WHARTON,TX,ASW,23814.1*A,N,PR,PR,29.1960855556,-96.4919144444
STOVALL RANCH NR 1,AIRPORT,EL CAMPO,WHARTON,TX,ASW,23813.5*A,N,PR,PR,29.2002522222,-96.5544161111
HALIFAX HOSPITAL MEDICAL CENTER,HELIPORT,DAYTONA BEACH,VOLUSIA,FL,ASO,03147.4*H,N,PR,PR,29.2013702778,-81.0539450000
INTERMEDICS,HELIPORT,ANGLETON,BRAZORIA,TX,ASW,23337.23*H,N,PR,PR,29.2032980556,-95.4374400000
GARNER FIELD,AIRPORT,UVALDE,UVALDE,TX,ASW,24955.*A,N,PU,PU,29.2113333333,-99.7435833333
UVALDE COUNTY HOSPITAL AUTHORITY,HELIPORT,UVALDE,UVALDE,TX,ASW,24955.3*H,N,PR,PU,29.2141277778,-99.7678338889
COMPRESSOR STATION 524,HELIPORT,LEEVILLE,LAFOURCHE,LA,ASW,07607.56*H,N,PR,PR,29.2160608333,-90.2159111111
CANNON FIELD,AIRPORT,SOMERSET,BEXAR,TX,ASW,24822.*A,N,PU,PR,29.2160733333,-98.5494619444
LA FONDA RANCH,AIRPORT,BRACKETTVILLE,KINNEY,TX,ASW,23471.12*A,N,PR,PR,29.2169027778,-100.6170288889
KNAPE,AIRPORT,DANBURY,BRAZORIA,TX,ASW,23722.03*A,N,PR,PR,29.2204222222,-95.3108805556
BAILEY,AIRPORT,STOCKDALE,WILSON,TX,ASW,24852.7*A,N,PR,PR,29.2205205556,-97.8716677778
CHEVRON USA INC,HELIPORT,LEEVILLE,LAFOURCHE,LA,ASW,07607.7*H,N,PR,PR,29.2210605556,-90.2178555556
RUSSELL PARADISE,AIRPORT,ELMENDORF,BEXAR,TX,ASW,23824.611*A,N,PR,PR,29.2252405556,-98.3836244444
THE CEDARS AIRFIELD,AIRPORT,CEDAR KEY,LEVY,FL,ASO,03102.01*A,N,PR,PR,29.2280205556,-82.9437308333
BENSON AIRSTRIP,AIRPORT,UVALDE,UVALDE,TX,ASW,24955.2*A,N,PR,PR,29.2294050000,-99.8239466667
LEBEGUE LSA LANDING,AIRPORT,ELMENDORF,BEXAR,TX,ASW,23824.62*A,N,PR,PR,29.2302777778,-98.3500000000
SMOKEY'S,HELIPORT,DAYTONA BEACH,VOLUSIA,FL,ASO,03147.3*H,N,PR,PR,29.2308141667,-81.0281105556
AMOCO,HELIPORT,ALVIN,BRAZORIA,TX,ASW,23313.1*H,N,PR,PR,29.2313505556,-95.1902083333
CLOVER LAKE FARMS,AIRPORT,ANGLETON,BRAZORIA,TX,ASW,23337.24*A,N,PR,PR,29.2337416667,-95.4767000000
TENNECO-COCODRIE,HELIPORT,COCODRIE,TERREBONNE,LA,ASW,07475.12*H,N,PR,PR,29.2371708333,-90.6659213889
CROSS CREEK FARMS,AIRPORT,ORMOND,VOLUSIA,FL,ASO,03411.2*A,N,PR,PR,29.2394247222,-81.2220050000
SALAIKA AVIATION,AIRPORT,DANBURY,BRAZORIA,TX,ASW,23722.02*A,N,PR,PR,29.2405183333,-95.3446583333
JOYE RANCH,AIRPORT,SMILEY,GONZALES,TX,ASW,24813.7*A,N,PR,PR,29.2416666667,-97.6297222222
WINGS FIELD,AIRPORT,WILLISTON,LEVY,FL,ASO,03559.1*A,N,PR,PR,29.2424700000,-82.5453830556
CROSSWIND FARM,AIRPORT,OCALA,MARION,FL,ASO,03394.05*A,N,PR,PR,29.2452505556,-82.3537108333
TOURIST RIDE SERVICES,HELIPORT,GALVESTON,GALVESTON,TX,ASW,23915.05*H,N,PR,PR,29.2460713889,-94.8646416667
ODECO COCODRIE,HELIPORT,COCODRIE,TERREBONNE,LA,ASW,07475.1*H,N,PR,PR,29.2493927778,-90.6620322222
TRIPLE R,AIRPORT,SAN ANTONIO,BEXAR,TX,ASW,24694.5*A,N,PR,PR,29.2494058333,-98.4761263889
PIERSON MUNI,AIRPORT,PIERSON,VOLUSIA,FL,ASO,03443.1*A,N,PU,PU,29.2500277778,-81.4593333333
HOUMA TERREBONNE,HELIPORT,CHAUVIN,TERREBONNE,LA,ASW,07468.5*H,N,PR,PR,29.2505038889,-90.6623100000
LYTLE AIRPARK,AIRPORT,LYTLE,MEDINA,TX,ASW,24255.*A,N,PR,PR,29.2533333333,-98.8611111111
WHARTON RGNL,AIRPORT,WHARTON,WHARTON,TX,ASW,25016.11*A,N,PU,PU,29.2542777778,-96.1543888889
EXXON,HELIPORT,GRAND ISLE,JEFFERSON,LA,ASW,07530.*H,N,PR,PR,29.2557827778,-89.9675716667
CONOCO INC,HELIPORT,GRAND ISLE,JEFFERSON,LA,ASW,07529.3*H,N,PR,PR,29.2580050000,-89.9636825000
A W RANCH,AIRPORT,SAN ANTONIO,BEXAR,TX,ASW,24693.3*A,N,PR,PR,29.2585722222,-98.4583486111
TIGER PASS,SEAPLANE BASE,VENICE,PLAQUEMINES,LA,ASW,07763.11*C,N,PR,PR,29.2587500000,-89.3530250000
CONOCO INC. VENICE,HELIPORT,VENICE,PLAQUEMINES,LA,ASW,07763.15*H,N,PR,PR,29.2593877778,-89.3550536111
CHEVRON USA INC.,SEAPLANE BASE,VENICE,PLAQUEMINES,LA,ASW,07763.*C,N,PR,PR,29.2604988889,-89.3547758333
GRAND ISLE,SEAPLANE BASE,GRAND ISLE,JEFFERSON,LA,ASW,07529.1*C,N,PR,PR,29.2627269444,-89.9611825000
SQUIRREL CREEK RANCH,AIRPORT,D'HANIS,MEDINA,TX,ASW,23760.81*A,N,PR,PR,29.2641252778,-99.3505983333
FLYIN TIGER,AIRPORT,ANGLETON,BRAZORIA,TX,ASW,23337.31*A,N,PU,PR,29.2649671667,-95.4125700556
SCHOLES INTL AT GALVESTON,AIRPORT,GALVESTON,GALVESTON,TX,ASW,23915.*A,Y,PU,PU,29.2653333333,-94.8604166667
LACKEY AVIATION,AIRPORT,WHARTON,WHARTON,TX,ASW,25016.1*A,N,PU,PR,29.2660819444,-96.0077338889
T-RANCH,AIRPORT,CASTROVILLE,MEDINA,TX,ASW,23574.12*A,N,PR,PR,29.2669033333,-98.9253066667
EL CAMPO AIRPARK,AIRPORT,EL CAMPO,WHARTON,TX,ASW,23814.2*A,N,PR,PR,29.2669161111,-96.3252433333
BIG 'G',AIRPORT,ORMOND BEACH,VOLUSIA,FL,ASO,03411.11*A,N,PR,PR,29.2674794444,-81.2300611111
MIDLAKE,AIRPORT,ELMENDORF,BEXAR,TX,ASW,23824.6*A,N,PR,PR,29.2682947222,-98.3369569444
SHELL VENICE TERMINAL,HELIPORT,VENICE,PLAQUEMINES,LA,ASW,07763.2*H,N,PR,PR,29.2707763889,-89.3544980556
VENICE BASE HELIPORT & SPB,SEAPLANE BASE,VENICE,PLAQUEMINES,LA,ASW,07763.34*C,N,PR,PR,29.2711111111,-89.3558333333
SAN LUIS RESORT,HELIPORT,GALVESTON,GALVESTON,TX,ASW,23915.01*H,N,PR,PR,29.2734166667,-94.8175000000
SHERIFF'S NORTH MULTI DISTRICT OFFICE,HELIPORT,OCALA,MARION,FL,ASO,03394.09*H,N,PR,PU,29.2738888889,-82.1502777778
NEW GULF,AIRPORT,NEW GULF,WHARTON,TX,ASW,24411.5*A,N,PU,PR,29.2761111111,-95.8886111111
ROMERE PASS,SEAPLANE BASE,VENICE,PLAQUEMINES,LA,ASW,07763.26*C,N,PR,PR,29.2763308333,-89.2419952778
LAJITAS INTL,AIRPORT,LAJITAS,BREWSTER,TX,ASW,24179.99*A,N,PR,PR,29.2779555556,-103.6872583333
REDTAIL AIRSTRIP,AIRPORT,MORRISTON,LEVY,FL,ASO,03361.1*A,N,PR,PR,29.2791666667,-82.5000000000
JUMBOLAIR-GREYSTONE,AIRPORT,OCALA,MARION,FL,ASO,03393.1*A,N,PR,PR,29.2802522222,-82.1248147222
HORIZON,AIRPORT,SAN ANTONIO,BEXAR,TX,ASW,24694.*A,N,PU,PR,29.2845833333,-98.4983055556
MARATHON VENICE,HELIPORT,VENICE,PLAQUEMINES,LA,ASW,07763.22*H,N,PR,PR,29.2860533333,-89.3639425000
FORT CLARK SPRINGS,AIRPORT,BRACKETTVILLE,KINNEY,TX,ASW,23472.1*A,N,PR,PR,29.2866241667,-100.4336894444
GARRETT RANCH,AIRPORT,DANBURY,BRAZORIA,TX,ASW,23722.01*A,N,PR,PR,29.2871841667,-95.3596591667
ERA HELICOPTERS VENICE BASE,HELIPORT,VENICE,PLAQUEMINES,LA,ASW,07763.21*H,N,PR,PR,29.2874422222,-89.3678316667
RODGERS ROOST,AIRPORT,EL CAMPO,WHARTON,TX,ASW,23813.6*A,N,PR,PR,29.2877777778,-96.3497222222
IDLE WILD,AIRPORT,OCALA,MARION,FL,ASO,03394.03*A,N,PR,PR,29.2891391667,-82.3223213889
STATION 30,HELIPORT,EL CAMPO,WHARTON,TX,ASW,23814.01*H,N,PR,PR,29.2946927778,-96.3088538889
HARMONY FIELD,AIRPORT,ELMENDORF,BEXAR,TX,ASW,23824.61*A,N,PR,PR,29.2960711111,-98.3794580556
EVERGREEN VENICE,HELIPORT,VENICE,PLAQUEMINES,LA,ASW,07763.36*H,N,PR,PR,29.2966666667,-89.3744444444
STAR SMITH FIELD,AIRPORT,VON ORMY,BEXAR,TX,ASW,24975.75*A,N,PR,PR,29.2980147222,-98.6766877778
CLEVELAND,AIRPORT,LA VERNIA,WILSON,TX,ASW,24195.8*A,N,PR,PR,29.3002386111,-98.1836202778
ORMOND BEACH MUNI,AIRPORT,ORMOND BEACH,VOLUSIA,FL,ASO,03411.*A,Y,PU,PU,29.3011419722,-81.1137774444
AIR LOGISTICS (VENICE) N,HELIPORT,VENICE,PLAQUEMINES,LA,ASW,07763.33*H,N,PR,PR,29.3018863889,-89.3744983333
U OF TEXAS MEDICAL BRANCH EMERGENCY ROOM,HELIPORT,GALVESTON,GALVESTON,TX,ASW,23915.06*H,N,PR,PR,29.3124416667,-94.7790388889
YOAKUM COMMUNITY HOSPITAL,HELIPORT,YOAKUM,LAVACA,TX,ASW,25070.13*H,N,PR,PR,29.3130555556,-97.1383333333
YOAKUM MUNI,AIRPORT,YOAKUM,LAVACA,TX,ASW,25070.1*A,N,PU,PU,29.3131666667,-97.1384166667
U OF TEXAS MEDICAL BRANCH EWING HALL,HELIPORT,GALVESTON,GALVESTON,TX,ASW,23915.02*H,N,PR,PU,29.3132000000,-94.7783527778
BASTIAN BAY,HELIPORT,BURAS,PLAQUEMINES,LA,ASW,07452.52*H,N,PR,PR,29.3141111111,-89.6142277778
OLD FORKER,ULTRALIGHT,SANTE FE,GALVESTON,TX,ASW,24742.62*U,N,PR,PR,29.3188472222,-95.0857611111
C FULCHER RANCH,AIRPORT,TERLINGUA /ALPINE/,BREWSTER,TX,ASW,24898.*A,N,PR,PR,29.3193638889,-103.5835183333
CROSS-B,AIRPORT,SAN ANTONIO,BEXAR,TX,ASW,24696.5*A,N,PR,PR,29.3209694444,-98.3702944444
SHELL PELICAN ISLAND,HELIPORT,GALVESTON,GALVESTON,TX,ASW,23915.03*H,N,PR,PR,29.3227361111,-94.7868622222
MIDSTREAM GALVESTON HELIPAD AREA NR 1,HELIPORT,GALVESTON,GALVESTON,TX,ASW,23915.075*H,N,PR,PR,29.3227777778,-94.7861111111
DRESSER INDUSTRIES/MAGCOBAR/,HELIPORT,GALVESTON,GALVESTON,TX,ASW,23915.04*H,N,PR,PR,29.3232916667,-94.7829733333
SHANKS AG STRIP,AIRPORT,WHARTON,WHARTON,TX,ASW,25016.112*A,N,PR,PR,29.3244138889,-96.0207900000
MIDSTREAM GALVESTON HELIPAD AREA NR 2,HELIPORT,GALVESTON,GALVESTON,TX,ASW,23915.08*H,N,PR,PR,29.3250000000,-94.7847222222
REPUBLIC HELICOPTERS,HELIPORT,SANTA FE,GALVESTON,TX,ASW,24742.63*H,N,PR,PR,29.3286111111,-95.0619444444
H & S AIRFIELD,AIRPORT,DAMON,FORT BEND,TX,ASW,23720.01*A,N,PR,PR,29.3310769444,-95.7046700000
MINARD PEGASUS,AIRPORT,ALVIN,BRAZORIA,TX,ASW,23313.12*A,N,PR,PR,29.3319055556,-95.2760416667
TOY AIRPARK,AIRPORT,LIVERPOOL,BRAZORIA,TX,ASW,24225.8*A,N,PR,PR,29.3327386111,-95.3341030556
HHI HITCHCOCK,HELIPORT,HITCHCOCK,GALVESTON,TX,ASW,24060.02*H,N,PR,PR,29.3335686111,-95.0265925000
GALVESTONIAN,HELIPORT,GALVESTON,GALVESTON,TX,ASW,23915.07*H,N,PR,PR,29.3336111111,-94.7336111111
LEE FARMS,AIRPORT,LOWELL,MARION,FL,ASO,03308.35*A,N,PR,PR,29.3346952778,-82.1667611111
CREASY,AIRPORT,SANTA FE,GALVESTON,TX,ASW,24742.61*A,N,PR,PR,29.3360694444,-95.1152066667
MEDICANT ISLAND,HELIPORT,GRAND ISLE,JEFFERSON,LA,ASW,07529.2*H,N,PR,PR,29.3366130556,-89.9842386111
STINSON MUNI,AIRPORT,SAN ANTONIO,BEXAR,TX,ASW,24708.*A,Y,PU,PU,29.3369822222,-98.4710452778
RELUCTANT GREMLIN,AIRPORT,FAIRFIELD,MARION,FL,ASO,03183.3*A,N,PR,PR,29.3408055556,-82.2637083333
STANDARD INDUSTRIES,AIRPORT,SAN ANTONIO,BEXAR,TX,ASW,24693.5*A,N,PR,PR,29.3413466667,-98.6597430556
CASTROVILLE MUNI,AIRPORT,CASTROVILLE,MEDINA,TX,ASW,23574.1*A,N,PU,PU,29.3419208333,-98.8509005556
LA LEONA,AIRPORT,TERLINGUA,BREWSTER,TX,ASW,24898.1*A,N,PR,PR,29.3432522222,-103.5649058333
GULF COAST MEDICAL CENTER,HELIPORT,WHARTON,WHARTON,TX,ASW,25016.111*H,N,PR,PR,29.3444133333,-96.1171816667
H B ZACHRY,HELIPORT,SAN ANTONIO,BEXAR,TX,ASW,24696.45*H,N,PR,PR,29.3510686111,-98.5236283333
ROBERT L SUGGS,HELIPORT,BOOTHVILLE,PLAQUEMINES,LA,ASW,07440.*H,N,PR,PR,29.3513888889,-89.4372222222
SOUTHWEST GENERAL HOSPITAL,HELIPORT,SAN ANTONIO,BEXAR,TX,ASW,24693.37*H,N,PR,PR,29.3519027778,-98.5450166667
PRAIRIE AIRE FIELD,AIRPORT,DAMON,FORT BEND,TX,ASW,23720.*A,N,PR,PR,29.3555200000,-95.6638358333
WILLISTON MUNI,AIRPORT,WILLISTON,LEVY,FL,ASO,03559.*A,N,PU,PU,29.3557167778,-82.4716996111
BB AIRPARK,AIRPORT,ROSHARON,HOUSTON,TX,ASW,24656.01*A,N,PR,PR,29.3569416667,-95.4594027778
MEYER FIELD,AIRPORT,ROSHARON,FORT BEND,TX,ASW,24656.11*A,N,PR,PR,29.3580197222,-95.6352238889
PEARSON RANCH PRIVATE,AIRPORT,YOAKUM,LAVACA,TX,ASW,25070.11*A,N,PR,PR,29.3585775000,-97.1447083333
HONDO MUNI,AIRPORT,HONDO,MEDINA,TX,ASW,24062.*A,N,PU,PU,29.3591305556,-99.1774916667
LAUGHLIN AFB,AIRPORT,DEL RIO,VAL VERDE,TX,ASW,23744.*A,Y,PR,MA,29.3593933333,-100.7779130556
JOHNNIE VOLK FIELD,AIRPORT,HITCHCOCK,GALVESTON,TX,ASW,24060.01*A,N,PR,PR,29.3602341667,-95.0099255556
GALAXY RANCH,AIRPORT,SHERIDAN,LAVACA,TX,ASW,24778.96*A,N,PR,PR,29.3608016667,-96.6224730556
DEPARTMENT OF PUBLIC SAFETY,HELIPORT,SAN ANTONIO,BEXAR,TX,ASW,24696.44*H,N,PR,PU,29.3613463889,-98.4491822222
WINGS-N-WHEELS,AIRPORT,REDDICK,MARION,FL,ASO,03462.8*A,N,PR,PR,29.3613616667,-82.1498163889
SONGBIRD RANCH,AIRPORT,ROSHARON,BRAZORIA,TX,ASW,24656.12*A,N,PR,PR,29.3674083333,-95.3405555556
MC CRELESS FARM,AIRPORT,ADKINS,BEXAR,TX,ASW,23289.*A,N,PR,PR,29.3710691667,-98.2316769444
DEL RIO INTL,AIRPORT,DEL RIO,VAL VERDE,TX,ASW,23745.*A,N,PU,PU,29.3742069444,-100.9271569444
J-D RANCH,AIRPORT,ALVIN,BRAZORIA,TX,ASW,23313.*A,N,PR,PR,29.3746816667,-95.2904908333
GLASSCOCK FIELD,AIRPORT,D'HANIS,MEDINA,TX,ASW,23760.8*A,N,PR,PR,29.3749558333,-99.3419866667
PANIOLA AIR RANCH,AIRPORT,CITRA,MARION,FL,ASO,03110.11*A,N,PR,PR,29.3752505556,-82.0581463889
BARATARIA BAY,HELIPORT,ECAILLE,PLAQUEMINES,LA,ASW,07502.*H,N,PR,PR,29.3785547222,-89.8545136111
WILLISTON MEMORIAL HOSPITAL,HELIPORT,WILLISTON,LEVY,FL,ASO,03559.01*H,N,PR,PR,29.3830255556,-82.4548261111
HOUSTON OIL & MINERALS PORT BOLIVAR,HELIPORT,PORT BOLIVAR,GALVESTON,TX,ASW,24531.5*H,N,PR,PR,29.3832897222,-94.7735291667
LACKLAND AFB (KELLY FLD ANNEX),AIRPORT,SAN ANTONIO,BEXAR,TX,ASW,24704.*A,Y,PR,MA,29.3842333333,-98.5811166667
FLYING C RANCH,AIRPORT,NEEDVILLE,FORT BEND,TX,ASW,24406.*A,N,PR,PR,29.3846861111,-95.6830030556
GOLDEN PEGASUS RANCH,HELIPORT,ALGOA,GALVESTON,TX,ASW,23302.7*H,N,PR,PR,29.3849577778,-95.1613197222
THOMPSON'S GOINBROKE AERO RANCH,AIRPORT,CITRA,MARION,FL,ASO,03110.*A,N,PR,PR,29.3866388889,-82.1428719444
HALLETTSVILLE MUNI,AIRPORT,HALLETTSVILLE,LAVACA,TX,ASW,24002.11*A,N,PU,PU,29.3899583333,-96.9560597222
HOUSTON OIL & MINERALS PORT BOLIVAR NR 2,HELIPORT,PORT BOLIVAR,GALVESTON,TX,ASW,24531.51*H,N,PR,PR,29.3910672222,-94.7640844444
GERUM FARM,AIRPORT,SHINER,LAVACA,TX,ASW,24781.*A,N,PR,PR,29.3919094444,-97.1847091667
CHIEFLAND SKY RANCH,AIRPORT,CHIEFLAND,LEVY,FL,ASO,03107.04*A,N,PR,PR,29.3949444444,-82.8697777778
MAINLAND RGNL HEALTH CARE SYSTEM,HELIPORT,LAMARQUE/TEXAS CITY,GALVESTON,TX,ASW,24181.1*H,N,PR,PR,29.3950250000,-94.9863583333
WILFORD HALL MEDICAL CENTER,HELIPORT,SAN ANTONIO,BEXAR,TX,ASW,24704.1*H,N,PR,MA,29.3973722222,-98.6241361111
REBEL FIELD,AIRPORT,ALTA LOMA,GALVESTON,TX,ASW,23310.01*A,N,PR,PR,29.3988452778,-95.0785394444
WEIBLEN,AIRPORT,CASTROVILLE,MEDINA,TX,ASW,23574.11*A,N,PR,PR,29.4002333333,-98.8875277778
BAYLESS,AIRPORT,ROSHARON,BRAZORIA,TX,ASW,24656.*A,N,PR,PR,29.4024605556,-95.4318850000
SKINNERS WHOLESALE NURSERY,AIRPORT,CRESCENT CITY,PUTNAM,FL,ASO,03124.23*A,N,PR,PR,29.4049741667,-81.4959055556
AIR LOGISTICS GALLIANO,HELIPORT,GALLIANO,LAFOURCHE,LA,ASW,07522.72*H,N,PR,PR,29.4122222222,-90.2944444444
ALVIN AIRPARK,AIRPORT,ALVIN,BRAZORIA,TX,ASW,23314.*A,N,PU,PR,29.4147500000,-95.2889166667
AUSTINIA,AIRPORT,TEXAS CITY,GALVESTON,TX,ASW,24905.*A,N,PR,PR,29.4174544444,-94.9982591667
ADKINS,HELIPORT,SAN ANTONIO,BEXAR,TX,ASW,24710.01*H,N,PR,PR,29.4176527778,-98.2861777778
KAMI-KAZI,AIRPORT,SANTA FE,GALVESTON,TX,ASW,24742.6*A,N,PR,PR,29.4207902778,-95.1590980556
DEL RIO,HELIPORT,SAN ANTONIO,BEXAR,TX,ASW,24696.42*H,N,PR,PU,29.4224552778,-98.4839055556
BERTANI RANCH,AIRPORT,DEL RIO,VAL VERDE,TX,ASW,23742.1*A,N,PR,PR,29.4227300000,-100.7387013889
TDCJ/SOUTHERN RGNL MEDICAL FACILITY,HELIPORT,TEXAS CITY,GALVESTON,TX,ASW,24905.01*H,N,PR,PU,29.4257888889,-94.9810361111
SANTA ROSA HELISTOP,HELIPORT,SAN ANTONIO,BEXAR,TX,ASW,24696.41*H,N,PR,PR,29.4268994444,-98.4997394444
EAGLES NEST AERODROME,AIRPORT,CRESCENT CITY,PUTNAM,FL,ASO,03124.1*A,N,PR,PR,29.4269444444,-81.6041666667
CIBOLO SEA-WILLO AIRPARK,AIRPORT,NEW BERLIN,GUADALUPE,TX,ASW,24406.8*A,N,PR,PR,29.4291222222,-98.1316722222
TULAROSA,AIRPORT,BRACKETTVILLE,KINNEY,TX,ASW,23471.2*A,N,PR,PR,29.4305100000,-100.2575741667
MARTINDALE AHP,HELIPORT,SAN ANTONIO,BEXAR,TX,ASW,24705.1*H,N,PR,MR,29.4313441667,-98.3777919444
BAPTIST MEDICAL CENTER,HELIPORT,SAN ANTONIO,BEXAR,TX,ASW,24696.3*H,N,PR,PR,29.4330102778,-98.4922391667
RED BERRY,HELIPORT,SAN ANTONIO,BEXAR,TX,ASW,24693.36*H,N,PR,PR,29.4346500000,-98.4178000000
MOUNT ROYAL,AIRPORT,WELAKA,PUTNAM,FL,ASO,03550.01*A,N,PR,PR,29.4360805556,-81.6567444444
SOUTH LAFOURCHE LEONARD MILLER JR,AIRPORT,GALLIANO,LAFOURCHE,LA,ASW,07522.71*A,N,PU,PU,29.4411055556,-90.2611208333
JIM FINLAY FARM,AIRPORT,CRESENT CITY,PUTNAM,FL,ASO,03124.3*A,N,PR,PR,29.4419169444,-81.5831313889
HERITAGE AIRFIELD,AIRPORT,NEW BERLIN,GUADALUPE,TX,ASW,24406.81*A,N,PR,PR,29.4444444444,-98.1127777778
